{
    "exif": [
        {
            "DateCreated": "1919:08:29",
            "GPSLatitude": "44.03288056",
            "GPSLongitude": "15.61251111",
            "Title": "Benkovac",
            "Photo1000px": "http://sutrashop.com.hr/wp-content/uploads/2021/05/1000px-001.jpg",
            "Photo200px": "http://sutrashop.com.hr/wp-content/uploads/2021/05/200px-001.jpg"
        },
        {
            "DateCreated": "1908:06:12",
            "GPSLatitude": "43.52561389",
            "GPSLongitude": "17.02936111",
            "Title": "Studenci",
            "Photo1000px": "http://sutrashop.com.hr/wp-content/uploads/2021/05/1000px-002.jpg",
            "Photo200px": "http://sutrashop.com.hr/wp-content/uploads/2021/05/200px-002.jpg"
        },
        {
            "DateCreated": "1905:09:03",
            "GPSLatitude": "43.39711111",
            "GPSLongitude": "17.05541667",
            "Title": "Zagvozd",
            "Photo1000px": "http://sutrashop.com.hr/wp-content/uploads/2021/05/1000px-003.jpg",
            "Photo200px": "http://sutrashop.com.hr/wp-content/uploads/2021/05/200px-003.jpg"
        },
        {
            "DateCreated": "1910:09:03",
            "GPSLatitude": "43.52829444",
            "GPSLongitude": "17.02938611",
            "Title": "LovreÄ‡",
            "Photo1000px": "http://sutrashop.com.hr/wp-content/uploads/2021/05/1000px-004.jpg",
            "Photo200px": "http://sutrashop.com.hr/wp-content/uploads/2021/05/200px-004.jpg"
        },
        {
            "DateCreated": "1909:09:03",
            "GPSLatitude": "43.44789444",
            "GPSLongitude": "17.21393333",
            "Title": "Imotski",
            "Photo1000px": "http://sutrashop.com.hr/wp-content/uploads/2021/05/1000px-005.jpg",
            "Photo200px": "http://sutrashop.com.hr/wp-content/uploads/2021/05/200px-005.jpg"
        },
        {
            "DateCreated": "1927:03:23",
            "GPSLatitude": "43.05916667",
            "GPSLongitude": "16.18723056",
            "Title": "Vis",
            "Photo1000px": "http://sutrashop.com.hr/wp-content/uploads/2021/05/1000px-006.jpg",
            "Photo200px": "http://sutrashop.com.hr/wp-content/uploads/2021/05/200px-006.jpg"
        },
        {
            "DateCreated": "1931:03:23",
            "GPSLatitude": "44.03286944",
            "GPSLongitude": "15.61251944",
            "Title": "Benkovac",
            "Photo1000px": "http://sutrashop.com.hr/wp-content/uploads/2021/05/1000px-007.jpg",
            "Photo200px": "http://sutrashop.com.hr/wp-content/uploads/2021/05/200px-007.jpg"
        },
        {
            "DateCreated": "1905:03:23",
            "GPSLatitude": "43.06788611",
            "GPSLongitude": "16.204275",
            "Title": "Vis",
            "Photo1000px": "http://sutrashop.com.hr/wp-content/uploads/2021/05/1000px-008.jpg",
            "Photo200px": "http://sutrashop.com.hr/wp-content/uploads/2021/05/200px-008.jpg"
        },
        {
            "DateCreated": "1909:03:26",
            "GPSLatitude": "43.73430278",
            "GPSLongitude": "15.89004722",
            "Title": "Å ibenik",
            "Photo1000px": "http://sutrashop.com.hr/wp-content/uploads/2021/05/1000px-009.jpg",
            "Photo200px": "http://sutrashop.com.hr/wp-content/uploads/2021/05/200px-009.jpg"
        },
        {
            "DateCreated": "1909:04:16",
            "GPSLatitude": "43.73430556",
            "GPSLongitude": "15.89004722",
            "Title": "Å ibenik",
            "Photo1000px": "http://sutrashop.com.hr/wp-content/uploads/2021/05/1000px-010.jpg",
            "Photo200px": "http://sutrashop.com.hr/wp-content/uploads/2021/05/200px-010.jpg"
        },
        {
            "DateCreated": "1909:04:16",
            "GPSLatitude": "43.73268889",
            "GPSLongitude": "15.89159167",
            "Title": "Å ibenik",
            "Photo1000px": "http://sutrashop.com.hr/wp-content/uploads/2021/05/1000px-011.jpg",
            "Photo200px": "http://sutrashop.com.hr/wp-content/uploads/2021/05/200px-011.jpg"
        },
        {
            "DateCreated": "1909:04:16",
            "GPSLatitude": "43.73306667",
            "GPSLongitude": "15.89215556",
            "Title": "Å ibenik",
            "Photo1000px": "http://sutrashop.com.hr/wp-content/uploads/2021/05/1000px-012.jpg",
            "Photo200px": "http://sutrashop.com.hr/wp-content/uploads/2021/05/200px-012.jpg"
        },
        {
            "DateCreated": "1909:04:16",
            "GPSLatitude": "43.73685556",
            "GPSLongitude": "15.88800833",
            "Title": "Å ibenik",
            "Photo1000px": "http://sutrashop.com.hr/wp-content/uploads/2021/05/1000px-013.jpg",
            "Photo200px": "http://sutrashop.com.hr/wp-content/uploads/2021/05/200px-013.jpg"
        },
        {
            "DateCreated": "1966:04:10",
            "GPSLatitude": "44.25785833",
            "GPSLongitude": "15.46371389",
            "Title": "Vinjerac",
            "Photo1000px": "http://sutrashop.com.hr/wp-content/uploads/2021/05/1000px-014.jpg",
            "Photo200px": "http://sutrashop.com.hr/wp-content/uploads/2021/05/200px-014.jpg"
        },
        {
            "DateCreated": "1965:04:10",
            "GPSLatitude": "43.97839722",
            "GPSLongitude": "15.09777222",
            "Title": "Luka",
            "Photo1000px": "http://sutrashop.com.hr/wp-content/uploads/2021/05/1000px-015.jpg",
            "Photo200px": "http://sutrashop.com.hr/wp-content/uploads/2021/05/200px-015.jpg"
        },
        {
            "DateCreated": "1909:04:16",
            "GPSLatitude": "43.73305556",
            "GPSLongitude": "15.89215556",
            "Title": "Å ibenik",
            "Photo1000px": "http://sutrashop.com.hr/wp-content/uploads/2021/05/1000px-016.jpg",
            "Photo200px": "http://sutrashop.com.hr/wp-content/uploads/2021/05/200px-016.jpg"
        },
        {
            "DateCreated": "1909:04:16",
            "GPSLatitude": "43.73503611",
            "GPSLongitude": "15.8887",
            "Title": "Å ibenik",
            "Photo1000px": "http://sutrashop.com.hr/wp-content/uploads/2021/05/1000px-017.jpg",
            "Photo200px": "http://sutrashop.com.hr/wp-content/uploads/2021/05/200px-017.jpg"
        },
        {
            "DateCreated": "1909:04:16",
            "GPSLatitude": "43.73353333",
            "GPSLongitude": "15.89235278",
            "Title": "Å ibenik",
            "Photo1000px": "http://sutrashop.com.hr/wp-content/uploads/2021/05/1000px-018.jpg",
            "Photo200px": "http://sutrashop.com.hr/wp-content/uploads/2021/05/200px-018.jpg"
        },
        {
            "DateCreated": "1968:04:10",
            "GPSLatitude": "44.37296389",
            "GPSLongitude": "14.69197222",
            "Title": "Silba",
            "Photo1000px": "http://sutrashop.com.hr/wp-content/uploads/2021/05/1000px-019.jpg",
            "Photo200px": "http://sutrashop.com.hr/wp-content/uploads/2021/05/200px-019.jpg"
        },
        {
            "DateCreated": "1916:04:11",
            "GPSLatitude": "43.79251111",
            "GPSLongitude": "16.59630556",
            "Title": "Sinj",
            "Photo1000px": "http://sutrashop.com.hr/wp-content/uploads/2021/05/1000px-020.jpg",
            "Photo200px": "http://sutrashop.com.hr/wp-content/uploads/2021/05/200px-020.jpg"
        },
        {
            "DateCreated": "1968:04:10",
            "GPSLatitude": "44.18574444",
            "GPSLongitude": "15.16006389",
            "Title": "Petrčane",
            "Photo1000px": "http://sutrashop.com.hr/wp-content/uploads/2021/05/1000px-021.jpg",
            "Photo200px": "http://sutrashop.com.hr/wp-content/uploads/2021/05/200px-021.jpg"
        },
        {
            "DateCreated": "1970:04:10",
            "GPSLatitude": "44.34921944",
            "GPSLongitude": "15.31619722",
            "Title": "Tribanj",
            "Photo1000px": "http://sutrashop.com.hr/wp-content/uploads/2021/05/1000px-022.jpg",
            "Photo200px": "http://sutrashop.com.hr/wp-content/uploads/2021/05/200px-022.jpg"
        },
        {
            "DateCreated": "1964:04:10",
            "GPSLatitude": "43.922125",
            "GPSLongitude": "15.41808889",
            "Title": "Tkon",
            "Photo1000px": "http://sutrashop.com.hr/wp-content/uploads/2021/05/1000px-023.jpg",
            "Photo200px": "http://sutrashop.com.hr/wp-content/uploads/2021/05/200px-023.jpg"
        },
        {
            "DateCreated": "1967:04:10",
            "GPSLatitude": "43.78665833",
            "GPSLongitude": "15.82248333",
            "Title": "Zaton kod Å ibenika",
            "Photo1000px": "http://sutrashop.com.hr/wp-content/uploads/2021/05/1000px-024.jpg",
            "Photo200px": "http://sutrashop.com.hr/wp-content/uploads/2021/05/200px-024.jpg"
        },
        {
            "DateCreated": "1964:04:16",
            "GPSLatitude": "43.82114167",
            "GPSLongitude": "15.60388333",
            "Title": "Betina",
            "Photo1000px": "http://sutrashop.com.hr/wp-content/uploads/2021/05/1000px-025.jpg",
            "Photo200px": "http://sutrashop.com.hr/wp-content/uploads/2021/05/200px-025.jpg"
        },
        {
            "DateCreated": "1970:04:16",
            "GPSLatitude": "44.29463056",
            "GPSLongitude": "15.43778056",
            "Title": "Starigrad Paklenica",
            "Photo1000px": "http://sutrashop.com.hr/wp-content/uploads/2021/05/1000px-026.jpg",
            "Photo200px": "http://sutrashop.com.hr/wp-content/uploads/2021/05/200px-026.jpg"
        },
        {
            "DateCreated": "1969:04:16",
            "GPSLatitude": "43.96039722",
            "GPSLongitude": "15.42468056",
            "Title": "Sveti Filip i Jakov",
            "Photo1000px": "http://sutrashop.com.hr/wp-content/uploads/2021/05/1000px-027.jpg",
            "Photo200px": "http://sutrashop.com.hr/wp-content/uploads/2021/05/200px-027.jpg"
        },
        {
            "DateCreated": "1965:04:10",
            "GPSLatitude": "43.82205278",
            "GPSLongitude": "15.58749444",
            "Title": "Murter",
            "Photo1000px": "http://sutrashop.com.hr/wp-content/uploads/2021/05/1000px-028.jpg",
            "Photo200px": "http://sutrashop.com.hr/wp-content/uploads/2021/05/200px-028.jpg"
        },
        {
            "DateCreated": "1936:04:11",
            "GPSLatitude": "42.98085",
            "GPSLongitude": "16.019125",
            "Title": "BiÅ¡evo",
            "Photo1000px": "http://sutrashop.com.hr/wp-content/uploads/2021/05/1000px-029.jpg",
            "Photo200px": "http://sutrashop.com.hr/wp-content/uploads/2021/05/200px-029.jpg"
        },
        {
            "DateCreated": "1967:04:11",
            "GPSLatitude": "43.82205278",
            "GPSLongitude": "15.58749444",
            "Title": "Murter",
            "Photo1000px": "http://sutrashop.com.hr/wp-content/uploads/2021/05/1000px-030.jpg",
            "Photo200px": "http://sutrashop.com.hr/wp-content/uploads/2021/05/200px-030.jpg"
        },
        {
            "DateCreated": "1968:04:16",
            "GPSLatitude": "43.44789444",
            "GPSLongitude": "17.21393333",
            "Title": "Imotski",
            "Photo1000px": "http://sutrashop.com.hr/wp-content/uploads/2021/05/1000px-031.jpg",
            "Photo200px": "http://sutrashop.com.hr/wp-content/uploads/2021/05/200px-031.jpg"
        },
        {
            "DateCreated": "1963:04:16",
            "GPSLatitude": "44.28395833",
            "GPSLongitude": "15.34840556",
            "Title": "RaÅ¾anac",
            "Photo1000px": "http://sutrashop.com.hr/wp-content/uploads/2021/05/1000px-032.jpg",
            "Photo200px": "http://sutrashop.com.hr/wp-content/uploads/2021/05/200px-032.jpg"
        },
        {
            "DateCreated": "1954:04:11",
            "GPSLatitude": "43.04421667",
            "GPSLongitude": "16.08864167",
            "Title": "KomiÅ¾a",
            "Photo1000px": "http://sutrashop.com.hr/wp-content/uploads/2021/05/1000px-033.jpg",
            "Photo200px": "http://sutrashop.com.hr/wp-content/uploads/2021/05/200px-033.jpg"
        },
        {
            "DateCreated": "1966:04:11",
            "GPSLatitude": "43.52413056",
            "GPSLongitude": "15.96261111",
            "Title": "Rogoznica",
            "Photo1000px": "http://sutrashop.com.hr/wp-content/uploads/2021/05/1000px-034.jpg",
            "Photo200px": "http://sutrashop.com.hr/wp-content/uploads/2021/05/200px-034.jpg"
        },
        {
            "DateCreated": "1931:04:16",
            "GPSLatitude": "43.04788333",
            "GPSLongitude": "16.08157778",
            "Title": "KomiÅ¾a",
            "Photo1000px": "http://sutrashop.com.hr/wp-content/uploads/2021/05/1000px-035.jpg",
            "Photo200px": "http://sutrashop.com.hr/wp-content/uploads/2021/05/200px-035.jpg"
        },
        {
            "DateCreated": "1967:04:11",
            "GPSLatitude": "43.75396389",
            "GPSLongitude": "15.74415278",
            "Title": "Tribunj",
            "Photo1000px": "http://sutrashop.com.hr/wp-content/uploads/2021/05/1000px-036.jpg",
            "Photo200px": "http://sutrashop.com.hr/wp-content/uploads/2021/05/200px-036.jpg"
        },
        {
            "DateCreated": "1952:04:16",
            "GPSLatitude": "43.82113333",
            "GPSLongitude": "15.60387222",
            "Title": "Betina",
            "Photo1000px": "http://sutrashop.com.hr/wp-content/uploads/2021/05/1000px-037.jpg",
            "Photo200px": "http://sutrashop.com.hr/wp-content/uploads/2021/05/200px-037.jpg"
        },
        {
            "DateCreated": "1966:04:16",
            "GPSLatitude": "43.44956389",
            "GPSLongitude": "17.20921667",
            "Title": "Imotski",
            "Photo1000px": "http://sutrashop.com.hr/wp-content/uploads/2021/05/1000px-038.jpg",
            "Photo200px": "http://sutrashop.com.hr/wp-content/uploads/2021/05/200px-038.jpg"
        },
        {
            "DateCreated": "1932:04:11",
            "GPSLatitude": "43.52967222",
            "GPSLongitude": "16.27731111",
            "Title": "Trogir",
            "Photo1000px": "http://sutrashop.com.hr/wp-content/uploads/2021/05/1000px-039.jpg",
            "Photo200px": "http://sutrashop.com.hr/wp-content/uploads/2021/05/200px-039.jpg"
        },
        {
            "DateCreated": "1921:04:11",
            "GPSLatitude": "43.52967222",
            "GPSLongitude": "16.27731111",
            "Title": "Trogir",
            "Photo1000px": "http://sutrashop.com.hr/wp-content/uploads/2021/05/1000px-040.jpg",
            "Photo200px": "http://sutrashop.com.hr/wp-content/uploads/2021/05/200px-040.jpg"
        },
        {
            "DateCreated": "1909:04:11",
            "GPSLatitude": "43.51815278",
            "GPSLongitude": "16.24995278",
            "Title": "Trogir",
            "Photo1000px": "http://sutrashop.com.hr/wp-content/uploads/2021/05/1000px-041.jpg",
            "Photo200px": "http://sutrashop.com.hr/wp-content/uploads/2021/05/200px-041.jpg"
        },
        {
            "DateCreated": "1936:04:11",
            "GPSLatitude": "43.51181667",
            "GPSLongitude": "16.24164167",
            "Title": "Trogir",
            "Photo1000px": "http://sutrashop.com.hr/wp-content/uploads/2021/05/1000px-042.jpg",
            "Photo200px": "http://sutrashop.com.hr/wp-content/uploads/2021/05/200px-042.jpg"
        },
        {
            "DateCreated": "1906:11:21",
            "GPSLatitude": "43.53856944",
            "GPSLongitude": "16.48230556",
            "Title": "Solin",
            "Photo1000px": "http://sutrashop.com.hr/wp-content/uploads/2021/05/1000px-043.jpg",
            "Photo200px": "http://sutrashop.com.hr/wp-content/uploads/2021/05/200px-043.jpg"
        },
        {
            "DateCreated": "1900:05:14",
            "GPSLatitude": "43.51602778",
            "GPSLongitude": "16.26307222",
            "Title": "Trogir",
            "Photo1000px": "http://sutrashop.com.hr/wp-content/uploads/2021/05/1000px-044.jpg",
            "Photo200px": "http://sutrashop.com.hr/wp-content/uploads/2021/05/200px-044.jpg"
        },
        {
            "DateCreated": "1898:10:18",
            "GPSLatitude": "43.53836111",
            "GPSLongitude": "16.47443889",
            "Title": "Solin",
            "Photo1000px": "http://sutrashop.com.hr/wp-content/uploads/2021/05/1000px-045.jpg",
            "Photo200px": "http://sutrashop.com.hr/wp-content/uploads/2021/05/200px-045.jpg"
        },
        {
            "DateCreated": "1910:10:18",
            "GPSLatitude": "43.52420278",
            "GPSLongitude": "16.48952222",
            "Title": "Solin",
            "Photo1000px": "http://sutrashop.com.hr/wp-content/uploads/2021/05/1000px-046.jpg",
            "Photo200px": "http://sutrashop.com.hr/wp-content/uploads/2021/05/200px-046.jpg"
        },
        {
            "DateCreated": "1909:09:03",
            "GPSLatitude": "44.20161389",
            "GPSLongitude": "15.68189167",
            "Title": "Obrovac",
            "Photo1000px": "http://sutrashop.com.hr/wp-content/uploads/2021/05/1000px-047.jpg",
            "Photo200px": "http://sutrashop.com.hr/wp-content/uploads/2021/05/200px-047.jpg"
        },
        {
            "DateCreated": "1912:09:03",
            "GPSLatitude": "43.961375",
            "GPSLongitude": "15.42723056",
            "Title": "Filip Jakov",
            "Photo1000px": "http://sutrashop.com.hr/wp-content/uploads/2021/05/1000px-048.jpg",
            "Photo200px": "http://sutrashop.com.hr/wp-content/uploads/2021/05/200px-048.jpg"
        },
        {
            "DateCreated": "1899:11:18",
            "GPSLatitude": "43.936125",
            "GPSLongitude": "15.44131667",
            "Title": "Biograd na moru",
            "Photo1000px": "http://sutrashop.com.hr/wp-content/uploads/2021/05/1000px-049.jpg",
            "Photo200px": "http://sutrashop.com.hr/wp-content/uploads/2021/05/200px-049.jpg"
        },
        {
            "DateCreated": "1912:04:16",
            "GPSLatitude": "43.94850833",
            "GPSLongitude": "15.46062222",
            "Title": "Jankolovica",
            "Photo1000px": "http://sutrashop.com.hr/wp-content/uploads/2021/05/1000px-050.jpg",
            "Photo200px": "http://sutrashop.com.hr/wp-content/uploads/2021/05/200px-050.jpg"
        },
        {
            "DateCreated": "1907:09:03",
            "GPSLatitude": "43.90688889",
            "GPSLongitude": "15.50855833",
            "Title": "PakoÅ¡tane",
            "Photo1000px": "http://sutrashop.com.hr/wp-content/uploads/2021/05/1000px-051.jpg",
            "Photo200px": "http://sutrashop.com.hr/wp-content/uploads/2021/05/200px-051.jpg"
        },
        {
            "DateCreated": "1909:09:03",
            "GPSLatitude": "43.75574167",
            "GPSLongitude": "15.77425",
            "Title": "Vodice",
            "Photo1000px": "http://sutrashop.com.hr/wp-content/uploads/2021/05/1000px-052.jpg",
            "Photo200px": "http://sutrashop.com.hr/wp-content/uploads/2021/05/200px-052.jpg"
        },
        {
            "DateCreated": "1909:09:16",
            "GPSLatitude": "43.75645",
            "GPSLongitude": "15.77475833",
            "Title": "Vodice",
            "Photo1000px": "http://sutrashop.com.hr/wp-content/uploads/2021/05/1000px-053.jpg",
            "Photo200px": "http://sutrashop.com.hr/wp-content/uploads/2021/05/200px-053.jpg"
        },
        {
            "DateCreated": "1899:09:03",
            "GPSLatitude": "43.82148333",
            "GPSLongitude": "15.92125278",
            "Title": "Skradin",
            "Photo1000px": "http://sutrashop.com.hr/wp-content/uploads/2021/05/1000px-054.jpg",
            "Photo200px": "http://sutrashop.com.hr/wp-content/uploads/2021/05/200px-054.jpg"
        },
        {
            "DateCreated": "1907:03:01",
            "GPSLatitude": "43.73634167",
            "GPSLongitude": "15.88798056",
            "Title": "Å ibenik",
            "Photo1000px": "http://sutrashop.com.hr/wp-content/uploads/2021/05/1000px-055.jpg",
            "Photo200px": "http://sutrashop.com.hr/wp-content/uploads/2021/05/200px-055.jpg"
        },
        {
            "DateCreated": "1909:09:16",
            "GPSLatitude": "43.73510278",
            "GPSLongitude": "15.89294444",
            "Title": "Å ibenik",
            "Photo1000px": "http://sutrashop.com.hr/wp-content/uploads/2021/05/1000px-056.jpg",
            "Photo200px": "http://sutrashop.com.hr/wp-content/uploads/2021/05/200px-056.jpg"
        },
        {
            "DateCreated": "1910:01:01",
            "GPSLatitude": "43.73449722",
            "GPSLongitude": "15.893475",
            "Title": "Å ibenik",
            "Photo1000px": "http://sutrashop.com.hr/wp-content/uploads/2021/05/1000px-057.jpg",
            "Photo200px": "http://sutrashop.com.hr/wp-content/uploads/2021/05/200px-057.jpg"
        },
        {
            "DateCreated": "1914:09:03",
            "GPSLatitude": "43.70625833",
            "GPSLongitude": "15.86744722",
            "Title": "ZablaÄ‡e",
            "Photo1000px": "http://sutrashop.com.hr/wp-content/uploads/2021/05/1000px-058.jpg",
            "Photo200px": "http://sutrashop.com.hr/wp-content/uploads/2021/05/200px-058.jpg"
        },
        {
            "DateCreated": "1909:04:10",
            "GPSLatitude": "43.51699167",
            "GPSLongitude": "16.25103889",
            "Title": "Trogir",
            "Photo1000px": "http://sutrashop.com.hr/wp-content/uploads/2021/05/1000px-059.jpg",
            "Photo200px": "http://sutrashop.com.hr/wp-content/uploads/2021/05/200px-059.jpg"
        },
        {
            "DateCreated": "1910:04:10",
            "GPSLatitude": "43.51690278",
            "GPSLongitude": "16.25111389",
            "Title": "Trogir",
            "Photo1000px": "http://sutrashop.com.hr/wp-content/uploads/2021/05/1000px-060.jpg",
            "Photo200px": "http://sutrashop.com.hr/wp-content/uploads/2021/05/200px-060.jpg"
        },
        {
            "DateCreated": "1913:04:10",
            "GPSLatitude": "43.55039444",
            "GPSLongitude": "16.36150556",
            "Title": "KaÅ¡tel LukÅ¡iÄ‡",
            "Photo1000px": "http://sutrashop.com.hr/wp-content/uploads/2021/05/1000px-061.jpg",
            "Photo200px": "http://sutrashop.com.hr/wp-content/uploads/2021/05/200px-061.jpg"
        },
        {
            "DateCreated": "1912:01:18",
            "GPSLatitude": "43.54776667",
            "GPSLongitude": "16.33823056",
            "Title": "KaÅ¡tel Å tafiliÄ‡",
            "Photo1000px": "http://sutrashop.com.hr/wp-content/uploads/2021/05/1000px-062.jpg",
            "Photo200px": "http://sutrashop.com.hr/wp-content/uploads/2021/05/200px-062.jpg"
        },
        {
            "DateCreated": "1921:12:05",
            "GPSLatitude": "43.81765278",
            "GPSLongitude": "15.93476944",
            "Title": "Skradin",
            "Photo1000px": "http://sutrashop.com.hr/wp-content/uploads/2021/05/1000px-063.jpg",
            "Photo200px": "http://sutrashop.com.hr/wp-content/uploads/2021/05/200px-063.jpg"
        },
        {
            "DateCreated": "1908:07:12",
            "GPSLatitude": "43.73510278",
            "GPSLongitude": "15.89294444",
            "Title": "Å ibenik",
            "Photo1000px": "http://sutrashop.com.hr/wp-content/uploads/2021/05/1000px-064.jpg",
            "Photo200px": "http://sutrashop.com.hr/wp-content/uploads/2021/05/200px-064.jpg"
        },
        {
            "DateCreated": "1914:02:11",
            "GPSLatitude": "43.537475",
            "GPSLongitude": "16.46391667",
            "Title": "KÅ¡tel SuÄ‡urac",
            "Photo1000px": "http://sutrashop.com.hr/wp-content/uploads/2021/05/1000px-065.jpg",
            "Photo200px": "http://sutrashop.com.hr/wp-content/uploads/2021/05/200px-065.jpg"
        },
        {
            "DateCreated": "1908:11:05",
            "GPSLatitude": "43.73357778",
            "GPSLongitude": "15.89166944",
            "Title": "Å ibenik",
            "Photo1000px": "http://sutrashop.com.hr/wp-content/uploads/2021/05/1000px-066.jpg",
            "Photo200px": "http://sutrashop.com.hr/wp-content/uploads/2021/05/200px-066.jpg"
        },
        {
            "DateCreated": "1934:04:18",
            "GPSLatitude": "43.52315",
            "GPSLongitude": "15.96795833",
            "Title": "Rogoznica",
            "Photo1000px": "http://sutrashop.com.hr/wp-content/uploads/2021/05/1000px-067.jpg",
            "Photo200px": "http://sutrashop.com.hr/wp-content/uploads/2021/05/200px-067.jpg"
        },
        {
            "DateCreated": "1908:04:15",
            "GPSLatitude": "43.50791111",
            "GPSLongitude": "16.43734167",
            "Title": "Split",
            "Photo1000px": "http://sutrashop.com.hr/wp-content/uploads/2021/05/1000px-068.jpg",
            "Photo200px": "http://sutrashop.com.hr/wp-content/uploads/2021/05/200px-068.jpg"
        },
        {
            "DateCreated": "1910:04:14",
            "GPSLatitude": "43.51213333",
            "GPSLongitude": "16.43523889",
            "Title": "Split",
            "Photo1000px": "http://sutrashop.com.hr/wp-content/uploads/2021/05/1000px-069.jpg",
            "Photo200px": "http://sutrashop.com.hr/wp-content/uploads/2021/05/200px-069.jpg"
        },
        {
            "DateCreated": "1928:01:01",
            "GPSLatitude": "43.717925",
            "GPSLongitude": "15.90336667",
            "Title": "Mandalina ",
            "Photo1000px": "http://sutrashop.com.hr/wp-content/uploads/2021/05/1000px-070.jpg",
            "Photo200px": "http://sutrashop.com.hr/wp-content/uploads/2021/05/200px-070.jpg"
        },
        {
            "DateCreated": "1914:09:03",
            "GPSLatitude": "43.48353056",
            "GPSLongitude": "16.58087222",
            "Title": "Podstrana",
            "Photo1000px": "http://sutrashop.com.hr/wp-content/uploads/2021/05/1000px-071.jpg",
            "Photo200px": "http://sutrashop.com.hr/wp-content/uploads/2021/05/200px-071.jpg"
        },
        {
            "DateCreated": "1914:09:03",
            "GPSLatitude": "43.46220833",
            "GPSLongitude": "16.61605278",
            "Title": "Krilo Jesenice",
            "Photo1000px": "http://sutrashop.com.hr/wp-content/uploads/2021/05/1000px-072.jpg",
            "Photo200px": "http://sutrashop.com.hr/wp-content/uploads/2021/05/200px-072.jpg"
        },
        {
            "DateCreated": "1912:12:09",
            "GPSLatitude": "43.50196389",
            "GPSLongitude": "16.44678889",
            "Title": "Split",
            "Photo1000px": "http://sutrashop.com.hr/wp-content/uploads/2021/05/1000px-073.jpg",
            "Photo200px": "http://sutrashop.com.hr/wp-content/uploads/2021/05/200px-073.jpg"
        },
        {
            "DateCreated": "1902:05:23",
            "GPSLatitude": "43.52383333",
            "GPSLongitude": "15.96875",
            "Title": "Rogoznica",
            "Photo1000px": "http://sutrashop.com.hr/wp-content/uploads/2021/05/1000px-074.jpg",
            "Photo200px": "http://sutrashop.com.hr/wp-content/uploads/2021/05/200px-074.jpg"
        },
        {
            "DateCreated": "1909:09:03",
            "GPSLatitude": "43.31650833",
            "GPSLongitude": "17.00485833",
            "Title": "Lurdska Å¡pilja u Vepricu",
            "Photo1000px": "http://sutrashop.com.hr/wp-content/uploads/2021/05/1000px-075.jpg",
            "Photo200px": "http://sutrashop.com.hr/wp-content/uploads/2021/05/200px-075.jpg"
        },
        {
            "DateCreated": "1912:09:03",
            "GPSLatitude": "43.14094167",
            "GPSLongitude": "17.27471944",
            "Title": "Zaostrog",
            "Photo1000px": "http://sutrashop.com.hr/wp-content/uploads/2021/05/1000px-076.jpg",
            "Photo200px": "http://sutrashop.com.hr/wp-content/uploads/2021/05/200px-076.jpg"
        },
        {
            "DateCreated": "1908:09:16",
            "GPSLatitude": "43.05419167",
            "GPSLongitude": "17.64446389",
            "Title": "MetkoviÄ‡",
            "Photo1000px": "http://sutrashop.com.hr/wp-content/uploads/2021/05/1000px-077.jpg",
            "Photo200px": "http://sutrashop.com.hr/wp-content/uploads/2021/05/200px-077.jpg"
        },
        {
            "DateCreated": "1908:07:12",
            "GPSLatitude": "43.54902778",
            "GPSLongitude": "16.29360833",
            "Title": "KaÅ¡tela",
            "Photo1000px": "http://sutrashop.com.hr/wp-content/uploads/2021/05/1000px-078.jpg",
            "Photo200px": "http://sutrashop.com.hr/wp-content/uploads/2021/05/200px-078.jpg"
        },
        {
            "DateCreated": "1909:09:03",
            "GPSLatitude": "42.83779722",
            "GPSLongitude": "17.69651944",
            "Title": "Ston",
            "Photo1000px": "http://sutrashop.com.hr/wp-content/uploads/2021/05/1000px-079.jpg",
            "Photo200px": "http://sutrashop.com.hr/wp-content/uploads/2021/05/200px-079.jpg"
        },
        {
            "DateCreated": "1908:09:03",
            "GPSLatitude": "42.92342778",
            "GPSLongitude": "17.42955278",
            "Title": "Janjina",
            "Photo1000px": "http://sutrashop.com.hr/wp-content/uploads/2021/05/1000px-080.jpg",
            "Photo200px": "http://sutrashop.com.hr/wp-content/uploads/2021/05/200px-080.jpg"
        },
        {
            "DateCreated": "1909:09:03",
            "GPSLatitude": "42.964475",
            "GPSLongitude": "17.34620278",
            "Title": "Kuna",
            "Photo1000px": "http://sutrashop.com.hr/wp-content/uploads/2021/05/1000px-081.jpg",
            "Photo200px": "http://sutrashop.com.hr/wp-content/uploads/2021/05/200px-081.jpg"
        },
        {
            "DateCreated": "1911:07:12",
            "GPSLatitude": "43.54823333",
            "GPSLongitude": "16.38534167",
            "Title": "KaÅ¡tel Kambelovac",
            "Photo1000px": "http://sutrashop.com.hr/wp-content/uploads/2021/05/1000px-082.jpg",
            "Photo200px": "http://sutrashop.com.hr/wp-content/uploads/2021/05/200px-082.jpg"
        },
        {
            "DateCreated": "1905:09:03",
            "GPSLatitude": "43.009075",
            "GPSLongitude": "17.26674444",
            "Title": "Trpanj",
            "Photo1000px": "http://sutrashop.com.hr/wp-content/uploads/2021/05/1000px-083.jpg",
            "Photo200px": "http://sutrashop.com.hr/wp-content/uploads/2021/05/200px-083.jpg"
        },
        {
            "DateCreated": "1928:04:05",
            "GPSLatitude": "43.53578889",
            "GPSLongitude": "16.48926667",
            "Title": "Solin",
            "Photo1000px": "http://sutrashop.com.hr/wp-content/uploads/2021/05/1000px-084.jpg",
            "Photo200px": "http://sutrashop.com.hr/wp-content/uploads/2021/05/200px-084.jpg"
        },
        {
            "DateCreated": "1908:09:03",
            "GPSLatitude": "42.78606111",
            "GPSLongitude": "17.8888",
            "Title": "Slano",
            "Photo1000px": "http://sutrashop.com.hr/wp-content/uploads/2021/05/1000px-085.jpg",
            "Photo200px": "http://sutrashop.com.hr/wp-content/uploads/2021/05/200px-085.jpg"
        },
        {
            "DateCreated": "1904:09:03",
            "GPSLatitude": "42.71415",
            "GPSLongitude": "17.97853333",
            "Title": "Trsteno",
            "Photo1000px": "http://sutrashop.com.hr/wp-content/uploads/2021/05/1000px-086.jpg",
            "Photo200px": "http://sutrashop.com.hr/wp-content/uploads/2021/05/200px-086.jpg"
        },
        {
            "DateCreated": "1909:07:12",
            "GPSLatitude": "43.50476389",
            "GPSLongitude": "16.43061667",
            "Title": "Split",
            "Photo1000px": "http://sutrashop.com.hr/wp-content/uploads/2021/05/1000px-087.jpg",
            "Photo200px": "http://sutrashop.com.hr/wp-content/uploads/2021/05/200px-087.jpg"
        },
        {
            "DateCreated": "1912:09:03",
            "GPSLatitude": "42.65840278",
            "GPSLongitude": "18.08661667",
            "Title": "GruÅ¾",
            "Photo1000px": "http://sutrashop.com.hr/wp-content/uploads/2021/05/1000px-088.jpg",
            "Photo200px": "http://sutrashop.com.hr/wp-content/uploads/2021/05/200px-088.jpg"
        },
        {
            "DateCreated": "1919:07:12",
            "GPSLatitude": "43.50112222",
            "GPSLongitude": "16.42634722",
            "Title": "Split",
            "Photo1000px": "http://sutrashop.com.hr/wp-content/uploads/2021/05/1000px-089.jpg",
            "Photo200px": "http://sutrashop.com.hr/wp-content/uploads/2021/05/200px-089.jpg"
        },
        {
            "DateCreated": "1903:09:03",
            "GPSLatitude": "42.64091944",
            "GPSLongitude": "18.11043611",
            "Title": "Dubrovnik",
            "Photo1000px": "http://sutrashop.com.hr/wp-content/uploads/2021/05/1000px-090.jpg",
            "Photo200px": "http://sutrashop.com.hr/wp-content/uploads/2021/05/200px-090.jpg"
        },
        {
            "DateCreated": "1908:09:03",
            "GPSLatitude": "42.64235833",
            "Title": "Dubrovnik",
            "Photo1000px": "http://sutrashop.com.hr/wp-content/uploads/2021/05/1000px-091.jpg",
            "Photo200px": "http://sutrashop.com.hr/wp-content/uploads/2021/05/200px-091.jpg"
        },
        {
            "DateCreated": "1912:09:03",
            "GPSLatitude": "42.60868056",
            "GPSLongitude": "18.22979722",
            "Title": "Plat",
            "Photo1000px": "http://sutrashop.com.hr/wp-content/uploads/2021/05/1000px-092.jpg",
            "Photo200px": "http://sutrashop.com.hr/wp-content/uploads/2021/05/200px-092.jpg"
        },
        {
            "DateCreated": "1904:12:11",
            "GPSLatitude": "42.65804167",
            "GPSLongitude": "18.08669722",
            "Title": "GruÅ¾",
            "Photo1000px": "http://sutrashop.com.hr/wp-content/uploads/2021/05/1000px-093.jpg",
            "Photo200px": "http://sutrashop.com.hr/wp-content/uploads/2021/05/200px-093.jpg"
        },
        {
            "DateCreated": "1910:09:03",
            "GPSLatitude": "42.51577778",
            "GPSLongitude": "18.37178056",
            "Title": "Grude",
            "Photo1000px": "http://sutrashop.com.hr/wp-content/uploads/2021/05/1000px-094.jpg",
            "Photo200px": "http://sutrashop.com.hr/wp-content/uploads/2021/05/200px-094.jpg"
        },
        {
            "DateCreated": "1930:04:05",
            "GPSLatitude": "43.44649167",
            "GPSLongitude": "16.6293",
            "Title": "Mali Rat",
            "Photo1000px": "http://sutrashop.com.hr/wp-content/uploads/2021/05/1000px-095.jpg",
            "Photo200px": "http://sutrashop.com.hr/wp-content/uploads/2021/05/200px-095.jpg"
        },
        {
            "DateCreated": "1909:09:03",
            "GPSLatitude": "44.03286944",
            "GPSLongitude": "15.61251944",
            "Title": "Benkovac",
            "Photo1000px": "http://sutrashop.com.hr/wp-content/uploads/2021/05/1000px-096.jpg",
            "Photo200px": "http://sutrashop.com.hr/wp-content/uploads/2021/05/200px-096.jpg"
        },
        {
            "DateCreated": "1910:01:06",
            "GPSLatitude": "43.44538611",
            "GPSLongitude": "16.69210556",
            "Title": "OmiÅ¡",
            "Photo1000px": "http://sutrashop.com.hr/wp-content/uploads/2021/05/1000px-097.jpg",
            "Photo200px": "http://sutrashop.com.hr/wp-content/uploads/2021/05/200px-097.jpg"
        },
        {
            "DateCreated": "1909:05:05",
            "GPSLatitude": "44.03213889",
            "GPSLongitude": "16.20005278",
            "Title": "Knin",
            "Photo1000px": "http://sutrashop.com.hr/wp-content/uploads/2021/05/1000px-098.jpg",
            "Photo200px": "http://sutrashop.com.hr/wp-content/uploads/2021/05/200px-098.jpg"
        },
        {
            "DateCreated": "1903:05:03",
            "GPSLatitude": "43.86095",
            "GPSLongitude": "15.97353333",
            "Title": "Visovac",
            "Photo1000px": "http://sutrashop.com.hr/wp-content/uploads/2021/05/1000px-099.jpg",
            "Photo200px": "http://sutrashop.com.hr/wp-content/uploads/2021/05/200px-099.jpg"
        },
        {
            "DateCreated": "1914:07:12",
            "GPSLatitude": "43.29576667",
            "GPSLongitude": "17.01320556",
            "Title": "Makarska",
            "Photo1000px": "http://sutrashop.com.hr/wp-content/uploads/2021/05/1000px-100.jpg",
            "Photo200px": "http://sutrashop.com.hr/wp-content/uploads/2021/05/200px-100.jpg"
        },
        {
            "DateCreated": "1903:09:03",
            "GPSLatitude": "43.91036389",
            "GPSLongitude": "16.39511111",
            "Title": "Vrlika",
            "Photo1000px": "http://sutrashop.com.hr/wp-content/uploads/2021/05/1000px-101.jpg",
            "Photo200px": "http://sutrashop.com.hr/wp-content/uploads/2021/05/200px-101.jpg"
        },
        {
            "DateCreated": "1916:04:09",
            "GPSLatitude": "43.70194444",
            "GPSLongitude": "16.63671389",
            "Title": "Sinj",
            "Photo1000px": "http://sutrashop.com.hr/wp-content/uploads/2021/05/1000px-102.jpg",
            "Photo200px": "http://sutrashop.com.hr/wp-content/uploads/2021/05/200px-102.jpg"
        },
        {
            "DateCreated": "1914:04:16",
            "GPSLatitude": "43.51819167",
            "GPSLongitude": "16.55727222",
            "Title": "Å½rnovnica",
            "Photo1000px": "http://sutrashop.com.hr/wp-content/uploads/2021/05/1000px-103.jpg",
            "Photo200px": "http://sutrashop.com.hr/wp-content/uploads/2021/05/200px-103.jpg"
        },
        {
            "DateCreated": "1914:04:15",
            "GPSLatitude": "43.49299722",
            "GPSLongitude": "16.60634722",
            "Title": "Srinjine",
            "Photo1000px": "http://sutrashop.com.hr/wp-content/uploads/2021/05/1000px-104.jpg",
            "Photo200px": "http://sutrashop.com.hr/wp-content/uploads/2021/05/200px-104.jpg"
        },
        {
            "DateCreated": "1909:09:03",
            "GPSLatitude": "43.43689167",
            "GPSLongitude": "16.80493889",
            "Title": "KuÄiÄ‡i",
            "Photo1000px": "http://sutrashop.com.hr/wp-content/uploads/2021/05/1000px-105.jpg",
            "Photo200px": "http://sutrashop.com.hr/wp-content/uploads/2021/05/200px-105.jpg"
        },
        {
            "DateCreated": "1909:01:01",
            "GPSLatitude": "43.85869722",
            "GPSLongitude": "16.16035556",
            "Title": "DrniÅ¡ ",
            "Photo1000px": "http://sutrashop.com.hr/wp-content/uploads/2021/05/1000px-106.jpg",
            "Photo200px": "http://sutrashop.com.hr/wp-content/uploads/2021/05/200px-106.jpg"
        },
        {
            "DateCreated": "1908:06:12",
            "GPSLatitude": "43.52561389",
            "GPSLongitude": "17.02936111",
            "Title": "Studenci",
            "Photo1000px": "http://sutrashop.com.hr/wp-content/uploads/2021/05/1000px-107.jpg",
            "Photo200px": "http://sutrashop.com.hr/wp-content/uploads/2021/05/200px-107.jpg"
        },
        {
            "DateCreated": "1905:09:03",
            "GPSLatitude": "43.39711111",
            "GPSLongitude": "17.05541667",
            "Title": "Zagvozd",
            "Photo1000px": "http://sutrashop.com.hr/wp-content/uploads/2021/05/1000px-108.jpg",
            "Photo200px": "http://sutrashop.com.hr/wp-content/uploads/2021/05/200px-108.jpg"
        },
        {
            "DateCreated": "1910:09:03",
            "GPSLatitude": "43.52829444",
            "GPSLongitude": "17.02938611",
            "Title": "LovreÄ‡",
            "Photo1000px": "http://sutrashop.com.hr/wp-content/uploads/2021/05/1000px-109.jpg",
            "Photo200px": "http://sutrashop.com.hr/wp-content/uploads/2021/05/200px-109.jpg"
        },
        {
            "DateCreated": "1909:09:03",
            "GPSLatitude": "43.44789444",
            "GPSLongitude": "17.21393333",
            "Title": "Imotski",
            "Photo1000px": "http://sutrashop.com.hr/wp-content/uploads/2021/05/1000px-110.jpg",
            "Photo200px": "http://sutrashop.com.hr/wp-content/uploads/2021/05/200px-110.jpg"
        },
        {
            "DateCreated": "1922:07:12",
            "GPSLatitude": "42.89028333",
            "GPSLongitude": "17.45271944",
            "Title": "Å½uljana",
            "Photo1000px": "http://sutrashop.com.hr/wp-content/uploads/2021/05/1000px-111.jpg",
            "Photo200px": "http://sutrashop.com.hr/wp-content/uploads/2021/05/200px-111.jpg"
        },
        {
            "DateCreated": "1914:09:03",
            "GPSLatitude": "44.34355278",
            "GPSLongitude": "14.60143056",
            "Title": "Premuda",
            "Photo1000px": "http://sutrashop.com.hr/wp-content/uploads/2021/05/1000px-112.jpg",
            "Photo200px": "http://sutrashop.com.hr/wp-content/uploads/2021/05/200px-112.jpg"
        },
        {
            "DateCreated": "1908:09:03",
            "GPSLatitude": "44.44440556",
            "GPSLongitude": "15.05551944",
            "Title": "Pag",
            "Photo1000px": "http://sutrashop.com.hr/wp-content/uploads/2021/05/1000px-113.jpg",
            "Photo200px": "http://sutrashop.com.hr/wp-content/uploads/2021/05/200px-113.jpg"
        },
        {
            "DateCreated": "1905:09:03",
            "GPSLatitude": "44.27216944",
            "GPSLongitude": "14.76627778",
            "Title": "Ist",
            "Photo1000px": "http://sutrashop.com.hr/wp-content/uploads/2021/05/1000px-114.jpg",
            "Photo200px": "http://sutrashop.com.hr/wp-content/uploads/2021/05/200px-114.jpg"
        },
        {
            "DateCreated": "1905:07:12",
            "GPSLatitude": "42.71415",
            "GPSLongitude": "17.97853333",
            "Title": "Trsteno",
            "Photo1000px": "http://sutrashop.com.hr/wp-content/uploads/2021/05/1000px-115.jpg",
            "Photo200px": "http://sutrashop.com.hr/wp-content/uploads/2021/05/200px-115.jpg"
        },
        {
            "DateCreated": "1905:09:03",
            "GPSLatitude": "44.14258333",
            "GPSLongitude": "14.851225",
            "Title": "Veli Rat",
            "Photo1000px": "http://sutrashop.com.hr/wp-content/uploads/2021/05/1000px-116.jpg",
            "Photo200px": "http://sutrashop.com.hr/wp-content/uploads/2021/05/200px-116.jpg"
        },
        {
            "DateCreated": "1914:09:03",
            "GPSLatitude": "43.93737222",
            "GPSLongitude": "15.16611667",
            "Title": "Sali",
            "Photo1000px": "http://sutrashop.com.hr/wp-content/uploads/2021/05/1000px-117.jpg",
            "Photo200px": "http://sutrashop.com.hr/wp-content/uploads/2021/05/200px-117.jpg"
        },
        {
            "DateCreated": "1911:09:03",
            "GPSLatitude": "44.08714167",
            "GPSLongitude": "15.18416667",
            "Title": "Preko",
            "Photo1000px": "http://sutrashop.com.hr/wp-content/uploads/2021/05/1000px-118.jpg",
            "Photo200px": "http://sutrashop.com.hr/wp-content/uploads/2021/05/200px-118.jpg"
        },
        {
            "DateCreated": "1908:09:03",
            "GPSLatitude": "43.82203889",
            "GPSLongitude": "15.58750556",
            "Title": "Hramina",
            "Photo1000px": "http://sutrashop.com.hr/wp-content/uploads/2021/05/1000px-119.jpg",
            "Photo200px": "http://sutrashop.com.hr/wp-content/uploads/2021/05/200px-119.jpg"
        },
        {
            "DateCreated": "1914:09:16",
            "GPSLatitude": "43.79411111",
            "GPSLongitude": "15.64060278",
            "Title": "Tisno",
            "Photo1000px": "http://sutrashop.com.hr/wp-content/uploads/2021/05/1000px-120.jpg",
            "Photo200px": "http://sutrashop.com.hr/wp-content/uploads/2021/05/200px-120.jpg"
        },
        {
            "DateCreated": "1909:09:03",
            "GPSLatitude": "43.69888056",
            "GPSLongitude": "15.83621944",
            "Title": "Zlarin",
            "Photo1000px": "http://sutrashop.com.hr/wp-content/uploads/2021/05/1000px-121.jpg",
            "Photo200px": "http://sutrashop.com.hr/wp-content/uploads/2021/05/200px-121.jpg"
        },
        {
            "DateCreated": "1914:09:03",
            "GPSLatitude": "43.44895",
            "GPSLongitude": "16.14524444",
            "Title": "Drvenik",
            "Photo1000px": "http://sutrashop.com.hr/wp-content/uploads/2021/05/1000px-122.jpg",
            "Photo200px": "http://sutrashop.com.hr/wp-content/uploads/2021/05/200px-122.jpg"
        },
        {
            "DateCreated": "1912:09:03",
            "GPSLatitude": "43.32719167",
            "GPSLongitude": "16.44803333",
            "Title": "Milna",
            "Photo1000px": "http://sutrashop.com.hr/wp-content/uploads/2021/05/1000px-123.jpg",
            "Photo200px": "http://sutrashop.com.hr/wp-content/uploads/2021/05/200px-123.jpg"
        },
        {
            "DateCreated": "1908:04:12",
            "GPSLatitude": "43.38646389",
            "GPSLongitude": "16.55512222",
            "Title": "Supetar",
            "Photo1000px": "http://sutrashop.com.hr/wp-content/uploads/2021/05/1000px-124.jpg",
            "Photo200px": "http://sutrashop.com.hr/wp-content/uploads/2021/05/200px-124.jpg"
        },
        {
            "DateCreated": "1914:09:03",
            "GPSLatitude": "43.38611389",
            "GPSLongitude": "16.54705278",
            "Title": "Supetar",
            "Photo1000px": "http://sutrashop.com.hr/wp-content/uploads/2021/05/1000px-125.jpg",
            "Photo200px": "http://sutrashop.com.hr/wp-content/uploads/2021/05/200px-125.jpg"
        },
        {
            "DateCreated": "1910:01:18",
            "GPSLatitude": "44.44356667",
            "GPSLongitude": "15.05265556",
            "Title": "Pag",
            "Photo1000px": "http://sutrashop.com.hr/wp-content/uploads/2021/05/1000px-126.jpg",
            "Photo200px": "http://sutrashop.com.hr/wp-content/uploads/2021/05/200px-126.jpg"
        },
        {
            "DateCreated": "1910:09:03",
            "GPSLatitude": "43.37621111",
            "GPSLongitude": "16.62673611",
            "Title": "Postira",
            "Photo1000px": "http://sutrashop.com.hr/wp-content/uploads/2021/05/1000px-127.jpg",
            "Photo200px": "http://sutrashop.com.hr/wp-content/uploads/2021/05/200px-127.jpg"
        },
        {
            "DateCreated": "1910:04:12",
            "GPSLatitude": "43.34902778",
            "GPSLongitude": "16.73494444",
            "Title": "PuÄiÅ¡Ä‡e",
            "Photo1000px": "http://sutrashop.com.hr/wp-content/uploads/2021/05/1000px-128.jpg",
            "Photo200px": "http://sutrashop.com.hr/wp-content/uploads/2021/05/200px-128.jpg"
        },
        {
            "DateCreated": "1908:09:03",
            "GPSLatitude": "43.28528333",
            "GPSLongitude": "16.87261667",
            "Title": "Sumartin",
            "Photo1000px": "http://sutrashop.com.hr/wp-content/uploads/2021/05/1000px-129.jpg",
            "Photo200px": "http://sutrashop.com.hr/wp-content/uploads/2021/05/200px-129.jpg"
        },
        {
            "DateCreated": "1914:09:03",
            "GPSLatitude": "43.29521389",
            "GPSLongitude": "16.84863611",
            "Title": "Selca",
            "Photo1000px": "http://sutrashop.com.hr/wp-content/uploads/2021/05/1000px-130.jpg",
            "Photo200px": "http://sutrashop.com.hr/wp-content/uploads/2021/05/200px-130.jpg"
        },
        {
            "DateCreated": "1910:09:03",
            "GPSLatitude": "43.3458",
            "GPSLongitude": "16.47375833",
            "Title": "BoboviÅ¡Ä‡e",
            "Photo1000px": "http://sutrashop.com.hr/wp-content/uploads/2021/05/1000px-131.jpg",
            "Photo200px": "http://sutrashop.com.hr/wp-content/uploads/2021/05/200px-131.jpg"
        },
        {
            "DateCreated": "1906:09:03",
            "GPSLatitude": "43.33453889",
            "GPSLongitude": "16.53146944",
            "Title": "DraÄevica",
            "Photo1000px": "http://sutrashop.com.hr/wp-content/uploads/2021/05/1000px-132.jpg",
            "Photo200px": "http://sutrashop.com.hr/wp-content/uploads/2021/05/200px-132.jpg"
        },
        {
            "DateCreated": "1911:04:12",
            "GPSLatitude": "43.34751111",
            "GPSLongitude": "16.47988889",
            "Title": "LoÅ¾iÅ¡Ä‡e",
            "Photo1000px": "http://sutrashop.com.hr/wp-content/uploads/2021/05/1000px-133.jpg",
            "Photo200px": "http://sutrashop.com.hr/wp-content/uploads/2021/05/200px-133.jpg"
        },
        {
            "DateCreated": "1908:09:03",
            "GPSLatitude": "43.168375",
            "GPSLongitude": "16.44306111",
            "Title": "Hvar",
            "Photo1000px": "http://sutrashop.com.hr/wp-content/uploads/2021/05/1000px-134.jpg",
            "Photo200px": "http://sutrashop.com.hr/wp-content/uploads/2021/05/200px-134.jpg"
        },
        {
            "DateCreated": "1912:09:03",
            "GPSLatitude": "43.15645",
            "GPSLongitude": "16.452675",
            "Title": "Svjetionik Pokonji Dol",
            "Photo1000px": "http://sutrashop.com.hr/wp-content/uploads/2021/05/1000px-135.jpg",
            "Photo200px": "http://sutrashop.com.hr/wp-content/uploads/2021/05/200px-135.jpg"
        },
        {
            "DateCreated": "1910:03:10",
            "GPSLatitude": "43.69765556",
            "GPSLongitude": "15.83498889",
            "Title": "Zlarin",
            "Photo1000px": "http://sutrashop.com.hr/wp-content/uploads/2021/05/1000px-136.jpg",
            "Photo200px": "http://sutrashop.com.hr/wp-content/uploads/2021/05/200px-136.jpg"
        },
        {
            "DateCreated": "1909:01:15",
            "GPSLatitude": "42.56487778",
            "GPSLongitude": "18.27633889",
            "Title": "Cavtat",
            "Photo1000px": "http://sutrashop.com.hr/wp-content/uploads/2021/05/1000px-137.jpg",
            "Photo200px": "http://sutrashop.com.hr/wp-content/uploads/2021/05/200px-137.jpg"
        },
        {
            "DateCreated": "1906:12:11",
            "GPSLatitude": "43.38585556",
            "GPSLongitude": "16.47821389",
            "Title": "Sutivan",
            "Photo1000px": "http://sutrashop.com.hr/wp-content/uploads/2021/05/1000px-138.jpg",
            "Photo200px": "http://sutrashop.com.hr/wp-content/uploads/2021/05/200px-138.jpg"
        },
        {
            "DateCreated": "1914:01:21",
            "GPSLatitude": "43.38576389",
            "GPSLongitude": "16.47934444",
            "Title": "Sutivan",
            "Photo1000px": "http://sutrashop.com.hr/wp-content/uploads/2021/05/1000px-139.jpg",
            "Photo200px": "http://sutrashop.com.hr/wp-content/uploads/2021/05/200px-139.jpg"
        },
        {
            "DateCreated": "1904:06:06",
            "GPSLatitude": "43.171725",
            "GPSLongitude": "16.43928889",
            "Title": "Hvar",
            "Photo1000px": "http://sutrashop.com.hr/wp-content/uploads/2021/05/1000px-140.jpg",
            "Photo200px": "http://sutrashop.com.hr/wp-content/uploads/2021/05/200px-140.jpg"
        },
        {
            "DateCreated": "1914:09:03",
            "GPSLatitude": "43.06045",
            "GPSLongitude": "16.18473611",
            "Title": "Vis",
            "Photo1000px": "http://sutrashop.com.hr/wp-content/uploads/2021/05/1000px-141.jpg",
            "Photo200px": "http://sutrashop.com.hr/wp-content/uploads/2021/05/200px-141.jpg"
        },
        {
            "DateCreated": "1906:04:16",
            "GPSLatitude": "43.06199444",
            "GPSLongitude": "16.1886",
            "Title": "Vis",
            "Photo1000px": "http://sutrashop.com.hr/wp-content/uploads/2021/05/1000px-142.jpg",
            "Photo200px": "http://sutrashop.com.hr/wp-content/uploads/2021/05/200px-142.jpg"
        },
        {
            "DateCreated": "1908:09:03",
            "GPSLatitude": "43.04081944",
            "GPSLongitude": "16.09036944",
            "Title": "KomiÅ¾a",
            "Photo1000px": "http://sutrashop.com.hr/wp-content/uploads/2021/05/1000px-143.jpg",
            "Photo200px": "http://sutrashop.com.hr/wp-content/uploads/2021/05/200px-143.jpg"
        },
        {
            "DateCreated": "1903:09:03",
            "GPSLatitude": "42.96140278",
            "GPSLongitude": "16.71724722",
            "Title": "Vela Luka",
            "Photo1000px": "http://sutrashop.com.hr/wp-content/uploads/2021/05/1000px-144.jpg",
            "Photo200px": "http://sutrashop.com.hr/wp-content/uploads/2021/05/200px-144.jpg"
        },
        {
            "DateCreated": "1910:09:03",
            "GPSLatitude": "42.95864167",
            "GPSLongitude": "16.71118611",
            "Title": "Vela Luka",
            "Photo1000px": "http://sutrashop.com.hr/wp-content/uploads/2021/05/1000px-145.jpg",
            "Photo200px": "http://sutrashop.com.hr/wp-content/uploads/2021/05/200px-145.jpg"
        },
        {
            "DateCreated": "1914:01:21",
            "GPSLatitude": "43.28548333",
            "GPSLongitude": "16.87270278",
            "Title": "Sumartin",
            "Photo1000px": "http://sutrashop.com.hr/wp-content/uploads/2021/05/1000px-146.jpg",
            "Photo200px": "http://sutrashop.com.hr/wp-content/uploads/2021/05/200px-146.jpg"
        },
        {
            "DateCreated": "1909:09:03",
            "GPSLatitude": "42.93347778",
            "GPSLongitude": "16.93590556",
            "Title": "SvetiÅ¡te Gospe ÄŒarskog polja",
            "Photo1000px": "http://sutrashop.com.hr/wp-content/uploads/2021/05/1000px-147.jpg",
            "Photo200px": "http://sutrashop.com.hr/wp-content/uploads/2021/05/200px-147.jpg"
        },
        {
            "DateCreated": "1911:09:03",
            "GPSLatitude": "42.71479722",
            "GPSLongitude": "17.66806389",
            "Title": "SrÅ¡enoviÄ‡i",
            "Photo1000px": "http://sutrashop.com.hr/wp-content/uploads/2021/05/1000px-148.jpg",
            "Photo200px": "http://sutrashop.com.hr/wp-content/uploads/2021/05/200px-148.jpg"
        },
        {
            "DateCreated": "1902:09:03",
            "GPSLatitude": "42.7297",
            "GPSLongitude": "17.86021111",
            "Title": "Å ipan",
            "Photo1000px": "http://sutrashop.com.hr/wp-content/uploads/2021/05/1000px-149.jpg",
            "Photo200px": "http://sutrashop.com.hr/wp-content/uploads/2021/05/200px-149.jpg"
        },
        {
            "DateCreated": "1908:12:27",
            "GPSLatitude": "43.17225",
            "GPSLongitude": "16.44215833",
            "Title": "Hvar",
            "Photo1000px": "http://sutrashop.com.hr/wp-content/uploads/2021/05/1000px-150.jpg",
            "Photo200px": "http://sutrashop.com.hr/wp-content/uploads/2021/05/200px-150.jpg"
        },
        {
            "DateCreated": "1910:09:03",
            "GPSLatitude": "42.67939444",
            "GPSLongitude": "18.00563889",
            "Title": "KoloÄep",
            "Photo1000px": "http://sutrashop.com.hr/wp-content/uploads/2021/05/1000px-151.jpg",
            "Photo200px": "http://sutrashop.com.hr/wp-content/uploads/2021/05/200px-151.jpg"
        },
        {
            "DateCreated": "1909:01:01",
            "GPSLatitude": "43.859525",
            "GPSLongitude": "16.15479444",
            "Title": "DrniÅ¡ ",
            "Photo1000px": "http://sutrashop.com.hr/wp-content/uploads/2021/05/1000px-152.jpg",
            "Photo200px": "http://sutrashop.com.hr/wp-content/uploads/2021/05/200px-152.jpg"
        },
        {
            "DateCreated": "1907:12:15",
            "GPSLatitude": "43.05621667",
            "GPSLongitude": "16.20391389",
            "Title": "Vis",
            "Photo1000px": "http://sutrashop.com.hr/wp-content/uploads/2021/05/1000px-153.jpg",
            "Photo200px": "http://sutrashop.com.hr/wp-content/uploads/2021/05/200px-153.jpg"
        },
        {
            "DateCreated": "1911:12:17",
            "GPSLatitude": "43.04408889",
            "GPSLongitude": "16.08777222",
            "Title": "KomiÅ¾a ",
            "Photo1000px": "http://sutrashop.com.hr/wp-content/uploads/2021/05/1000px-154.jpg",
            "Photo200px": "http://sutrashop.com.hr/wp-content/uploads/2021/05/200px-154.jpg"
        },
        {
            "DateCreated": "1914:12:15",
            "GPSLatitude": "42.73219444",
            "GPSLongitude": "17.53279722",
            "Title": "Babino Polje",
            "Photo1000px": "http://sutrashop.com.hr/wp-content/uploads/2021/05/1000px-155.jpg",
            "Photo200px": "http://sutrashop.com.hr/wp-content/uploads/2021/05/200px-155.jpg"
        },
        {
            "DateCreated": "1914:05:21",
            "GPSLatitude": "43.43163611",
            "GPSLongitude": "16.89125278",
            "Title": "Zadvarje",
            "Photo1000px": "http://sutrashop.com.hr/wp-content/uploads/2021/05/1000px-156.jpg",
            "Photo200px": "http://sutrashop.com.hr/wp-content/uploads/2021/05/200px-156.jpg"
        },
        {
            "DateCreated": "1914:05:21",
            "GPSLatitude": "43.43191667",
            "GPSLongitude": "16.89144722",
            "Title": "Zadvarje",
            "Photo1000px": "http://sutrashop.com.hr/wp-content/uploads/2021/05/1000px-157.jpg",
            "Photo200px": "http://sutrashop.com.hr/wp-content/uploads/2021/05/200px-157.jpg"
        },
        {
            "DateCreated": "1907:01:24",
            "GPSLatitude": "43.44789444",
            "GPSLongitude": "17.21393333",
            "Title": "Imotski",
            "Photo1000px": "http://sutrashop.com.hr/wp-content/uploads/2021/05/1000px-158.jpg",
            "Photo200px": "http://sutrashop.com.hr/wp-content/uploads/2021/05/200px-158.jpg"
        },
        {
            "DateCreated": "1914:03:01",
            "GPSLatitude": "43.93738056",
            "GPSLongitude": "15.16607778",
            "Title": "Sali",
            "Photo1000px": "http://sutrashop.com.hr/wp-content/uploads/2021/05/1000px-159.jpg",
            "Photo200px": "http://sutrashop.com.hr/wp-content/uploads/2021/05/200px-159.jpg"
        },
        {
            "DateCreated": "1928:10:09",
            "GPSLatitude": "43.82140833",
            "GPSLongitude": "15.58719167",
            "Title": "Murter",
            "Photo1000px": "http://sutrashop.com.hr/wp-content/uploads/2021/05/1000px-160.jpg",
            "Photo200px": "http://sutrashop.com.hr/wp-content/uploads/2021/05/200px-160.jpg"
        },
        {
            "DateCreated": "1936:10:09",
            "GPSLatitude": "43.8223",
            "GPSLongitude": "15.60436944",
            "Title": "Betina",
            "Photo1000px": "http://sutrashop.com.hr/wp-content/uploads/2021/05/1000px-161.jpg",
            "Photo200px": "http://sutrashop.com.hr/wp-content/uploads/2021/05/200px-161.jpg"
        },
        {
            "DateCreated": "1914:06:01",
            "GPSLatitude": "43.7344",
            "GPSLongitude": "15.78884722",
            "Title": "Å epurine",
            "Photo1000px": "http://sutrashop.com.hr/wp-content/uploads/2021/05/1000px-162.jpg",
            "Photo200px": "http://sutrashop.com.hr/wp-content/uploads/2021/05/200px-162.jpg"
        },
        {
            "DateCreated": "1930:11:23",
            "GPSLatitude": "43.69717222",
            "GPSLongitude": "15.83617222",
            "Title": "Zlarin",
            "Photo1000px": "http://sutrashop.com.hr/wp-content/uploads/2021/05/1000px-163.jpg",
            "Photo200px": "http://sutrashop.com.hr/wp-content/uploads/2021/05/200px-163.jpg"
        },
        {
            "DateCreated": "1908:07:12",
            "GPSLatitude": "43.32670833",
            "GPSLongitude": "16.44844722",
            "Title": "Milna",
            "Photo1000px": "http://sutrashop.com.hr/wp-content/uploads/2021/05/1000px-164.jpg",
            "Photo200px": "http://sutrashop.com.hr/wp-content/uploads/2021/05/200px-164.jpg"
        },
        {
            "DateCreated": "1912:07:12",
            "GPSLatitude": "43.38519444",
            "GPSLongitude": "16.55500556",
            "Title": "Supetar",
            "Photo1000px": "http://sutrashop.com.hr/wp-content/uploads/2021/05/1000px-165.jpg",
            "Photo200px": "http://sutrashop.com.hr/wp-content/uploads/2021/05/200px-165.jpg"
        },
        {
            "DateCreated": "1909:02:14",
            "GPSLatitude": "43.28563611",
            "GPSLongitude": "16.87372778",
            "Title": "Sumartin",
            "Photo1000px": "http://sutrashop.com.hr/wp-content/uploads/2021/05/1000px-166.jpg",
            "Photo200px": "http://sutrashop.com.hr/wp-content/uploads/2021/05/200px-166.jpg"
        },
        {
            "DateCreated": "1935:04:05",
            "GPSLatitude": "43.28559722",
            "GPSLongitude": "16.87374722",
            "Title": "Sumartin",
            "Photo1000px": "http://sutrashop.com.hr/wp-content/uploads/2021/05/1000px-167.jpg",
            "Photo200px": "http://sutrashop.com.hr/wp-content/uploads/2021/05/200px-167.jpg"
        },
        {
            "DateCreated": "1932:04:05",
            "GPSLatitude": "43.28538056",
            "GPSLongitude": "16.87128056",
            "Title": "Sumartin",
            "Photo1000px": "http://sutrashop.com.hr/wp-content/uploads/2021/05/1000px-168.jpg",
            "Photo200px": "http://sutrashop.com.hr/wp-content/uploads/2021/05/200px-168.jpg"
        },
        {
            "DateCreated": "1910:07:12",
            "GPSLatitude": "43.33036667",
            "GPSLongitude": "16.575075",
            "Title": "NereÅ¾iÅ¡Ä‡e",
            "Photo1000px": "http://sutrashop.com.hr/wp-content/uploads/2021/05/1000px-169.jpg",
            "Photo200px": "http://sutrashop.com.hr/wp-content/uploads/2021/05/200px-169.jpg"
        },
        {
            "DateCreated": "1933:07:12",
            "GPSLatitude": "43.17070833",
            "GPSLongitude": "16.441125",
            "Title": "Hvar",
            "Photo1000px": "http://sutrashop.com.hr/wp-content/uploads/2021/05/1000px-170.jpg",
            "Photo200px": "http://sutrashop.com.hr/wp-content/uploads/2021/05/200px-170.jpg"
        },
        {
            "DateCreated": "1908:07:12",
            "GPSLatitude": "43.18500833",
            "GPSLongitude": "16.59868333",
            "Title": "Stari Grad",
            "Photo1000px": "http://sutrashop.com.hr/wp-content/uploads/2021/05/1000px-171.jpg",
            "Photo200px": "http://sutrashop.com.hr/wp-content/uploads/2021/05/200px-171.jpg"
        },
        {
            "DateCreated": "1914:11:06",
            "GPSLatitude": "43.16535556",
            "GPSLongitude": "16.70289167",
            "Title": "Jelsa",
            "Photo1000px": "http://sutrashop.com.hr/wp-content/uploads/2021/05/1000px-172.jpg",
            "Photo200px": "http://sutrashop.com.hr/wp-content/uploads/2021/05/200px-172.jpg"
        },
        {
            "DateCreated": "1936:03:01",
            "GPSLatitude": "43.16145556",
            "GPSLongitude": "16.69431944",
            "Title": "Jelsa",
            "Photo1000px": "http://sutrashop.com.hr/wp-content/uploads/2021/05/1000px-173.jpg",
            "Photo200px": "http://sutrashop.com.hr/wp-content/uploads/2021/05/200px-173.jpg"
        },
        {
            "DateCreated": "1909:07:12",
            "GPSLatitude": "42.96255278",
            "GPSLongitude": "17.13528611",
            "Title": "KorÄula",
            "Photo1000px": "http://sutrashop.com.hr/wp-content/uploads/2021/05/1000px-174.jpg",
            "Photo200px": "http://sutrashop.com.hr/wp-content/uploads/2021/05/200px-174.jpg"
        },
        {
            "DateCreated": "1905:06:23",
            "GPSLatitude": "42.96094167",
            "GPSLongitude": "17.13383333",
            "Title": "KorÄula",
            "Photo1000px": "http://sutrashop.com.hr/wp-content/uploads/2021/05/1000px-175.jpg",
            "Photo200px": "http://sutrashop.com.hr/wp-content/uploads/2021/05/200px-175.jpg"
        },
        {
            "DateCreated": "1914:07:12",
            "GPSLatitude": "42.96018889",
            "GPSLongitude": "16.71604167",
            "Title": "Vela Luka",
            "Photo1000px": "http://sutrashop.com.hr/wp-content/uploads/2021/05/1000px-176.jpg",
            "Photo200px": "http://sutrashop.com.hr/wp-content/uploads/2021/05/200px-176.jpg"
        },
        {
            "DateCreated": "1914:10:16",
            "GPSLatitude": "42.93678889",
            "GPSLongitude": "16.79224444",
            "Title": "Blato",
            "Photo1000px": "http://sutrashop.com.hr/wp-content/uploads/2021/05/1000px-177.jpg",
            "Photo200px": "http://sutrashop.com.hr/wp-content/uploads/2021/05/200px-177.jpg"
        },
        {
            "DateCreated": "1907:06:06",
            "GPSLatitude": "43.72052778",
            "GPSLongitude": "15.89650556",
            "Title": "Å ibenik",
            "Photo1000px": "http://sutrashop.com.hr/wp-content/uploads/2021/05/1000px-178.jpg",
            "Photo200px": "http://sutrashop.com.hr/wp-content/uploads/2021/05/200px-178.jpg"
        },
        {
            "DateCreated": "1912:11:21",
            "GPSLatitude": "43.38451389",
            "GPSLongitude": "16.55467778",
            "Title": "Supetar",
            "Photo1000px": "http://sutrashop.com.hr/wp-content/uploads/2021/05/1000px-179.jpg",
            "Photo200px": "http://sutrashop.com.hr/wp-content/uploads/2021/05/200px-179.jpg"
        },
        {
            "DateCreated": "1909:01:20",
            "GPSLatitude": "43.01693611",
            "GPSLongitude": "17.56336667",
            "Title": "Opuzen",
            "Photo1000px": "http://sutrashop.com.hr/wp-content/uploads/2021/05/1000px-180.jpg",
            "Photo200px": "http://sutrashop.com.hr/wp-content/uploads/2021/05/200px-180.jpg"
        },
        {
            "DateCreated": "1935:10:24",
            "GPSLatitude": "43.85960278",
            "GPSLongitude": "16.15479444",
            "Title": "DrniÅ¡",
            "Photo1000px": "http://sutrashop.com.hr/wp-content/uploads/2021/05/1000px-181.jpg",
            "Photo200px": "http://sutrashop.com.hr/wp-content/uploads/2021/05/200px-181.jpg"
        },
        {
            "DateCreated": "1935:10:24",
            "GPSLatitude": "43.68821667",
            "GPSLongitude": "15.70871667",
            "Title": "Kaprije",
            "Photo1000px": "http://sutrashop.com.hr/wp-content/uploads/2021/05/1000px-182.jpg",
            "Photo200px": "http://sutrashop.com.hr/wp-content/uploads/2021/05/200px-182.jpg"
        },
        {
            "DateCreated": "1924:11:21",
            "GPSLatitude": "42.94114722",
            "GPSLongitude": "17.33443333",
            "Title": "Potomje",
            "Photo1000px": "http://sutrashop.com.hr/wp-content/uploads/2021/05/1000px-183.jpg",
            "Photo200px": "http://sutrashop.com.hr/wp-content/uploads/2021/05/200px-183.jpg"
        },
        {
            "DateCreated": "1914:02:14",
            "GPSLatitude": "43.38796389",
            "GPSLongitude": "16.35066389",
            "Title": "RogaÄ",
            "Photo1000px": "http://sutrashop.com.hr/wp-content/uploads/2021/05/1000px-184.jpg",
            "Photo200px": "http://sutrashop.com.hr/wp-content/uploads/2021/05/200px-184.jpg"
        },
        {
            "DateCreated": "1899:03:18",
            "GPSLatitude": "43.51606667",
            "GPSLongitude": "16.2577",
            "Title": "Trogir",
            "Photo1000px": "http://sutrashop.com.hr/wp-content/uploads/2021/05/1000px-185.jpg",
            "Photo200px": "http://sutrashop.com.hr/wp-content/uploads/2021/05/200px-185.jpg"
        },
        {
            "DateCreated": "1934:03:20",
            "GPSLatitude": "43.52831667",
            "GPSLongitude": "17.029375",
            "Title": "LovreÄ‡",
            "Photo1000px": "http://sutrashop.com.hr/wp-content/uploads/2021/05/1000px-186.jpg",
            "Photo200px": "http://sutrashop.com.hr/wp-content/uploads/2021/05/200px-186.jpg"
        },
        {
            "DateCreated": "1910:03:20",
            "GPSLatitude": "43.43109167",
            "GPSLongitude": "17.19536667",
            "Title": "Kamen most",
            "Photo1000px": "http://sutrashop.com.hr/wp-content/uploads/2021/05/1000px-187.jpg",
            "Photo200px": "http://sutrashop.com.hr/wp-content/uploads/2021/05/200px-187.jpg"
        },
        {
            "DateCreated": "1934:02:14",
            "GPSLatitude": "43.05417778",
            "GPSLongitude": "17.64446389",
            "Title": "MetkoviÄ‡",
            "Photo1000px": "http://sutrashop.com.hr/wp-content/uploads/2021/05/1000px-188.jpg",
            "Photo200px": "http://sutrashop.com.hr/wp-content/uploads/2021/05/200px-188.jpg"
        },
        {
            "DateCreated": "1912:07:12",
            "GPSLatitude": "43.33855278",
            "GPSLongitude": "16.83343333",
            "Title": "Povlja",
            "Photo1000px": "http://sutrashop.com.hr/wp-content/uploads/2021/05/1000px-189.jpg",
            "Photo200px": "http://sutrashop.com.hr/wp-content/uploads/2021/05/200px-189.jpg"
        },
        {
            "DateCreated": "1916:07:07",
            "GPSLatitude": "43.52644167",
            "GPSLongitude": "15.97083889",
            "Title": "Rogoznica",
            "Photo1000px": "http://sutrashop.com.hr/wp-content/uploads/2021/05/1000px-190.jpg",
            "Photo200px": "http://sutrashop.com.hr/wp-content/uploads/2021/05/200px-190.jpg"
        },
        {
            "DateCreated": "1933:11:10",
            "GPSLatitude": "43.69846389",
            "GPSLongitude": "16.6562",
            "Title": "Sinj",
            "Photo1000px": "http://sutrashop.com.hr/wp-content/uploads/2021/05/1000px-191.jpg",
            "Photo200px": "http://sutrashop.com.hr/wp-content/uploads/2021/05/200px-191.jpg"
        },
        {
            "DateCreated": "1933:11:10",
            "GPSLatitude": "43.69844722",
            "GPSLongitude": "16.65626389",
            "Title": "Sinj",
            "Photo1000px": "http://sutrashop.com.hr/wp-content/uploads/2021/05/1000px-192.jpg",
            "Photo200px": "http://sutrashop.com.hr/wp-content/uploads/2021/05/200px-192.jpg"
        },
        {
            "DateCreated": "1933:11:10",
            "GPSLatitude": "43.69844722",
            "GPSLongitude": "16.65626389",
            "Title": "Sinj",
            "Photo1000px": "http://sutrashop.com.hr/wp-content/uploads/2021/05/1000px-193.jpg",
            "Photo200px": "http://sutrashop.com.hr/wp-content/uploads/2021/05/200px-193.jpg"
        },
        {
            "DateCreated": "1902:04:17",
            "GPSLatitude": "43.50475278",
            "GPSLongitude": "16.43061667",
            "Title": "Split",
            "Photo1000px": "http://sutrashop.com.hr/wp-content/uploads/2021/05/1000px-194.jpg",
            "Photo200px": "http://sutrashop.com.hr/wp-content/uploads/2021/05/200px-194.jpg"
        },
        {
            "DateCreated": "1924:04:17",
            "GPSLatitude": "43.504925",
            "GPSLongitude": "16.43618056",
            "Title": "Split",
            "Photo1000px": "http://sutrashop.com.hr/wp-content/uploads/2021/05/1000px-195.jpg",
            "Photo200px": "http://sutrashop.com.hr/wp-content/uploads/2021/05/200px-195.jpg"
        },
        {
            "DateCreated": "1908:09:03",
            "GPSLatitude": "43.81842222",
            "GPSLongitude": "15.59126389",
            "Title": "Murter",
            "Photo1000px": "http://sutrashop.com.hr/wp-content/uploads/2021/05/1000px-196.jpg",
            "Photo200px": "http://sutrashop.com.hr/wp-content/uploads/2021/05/200px-196.jpg"
        },
        {
            "DateCreated": "1914:03:11",
            "GPSLatitude": "43.44790556",
            "GPSLongitude": "17.21392778",
            "Title": "Imotski",
            "Photo1000px": "http://sutrashop.com.hr/wp-content/uploads/2021/05/1000px-197.jpg",
            "Photo200px": "http://sutrashop.com.hr/wp-content/uploads/2021/05/200px-197.jpg"
        },
        {
            "DateCreated": "1909:10:12",
            "GPSLatitude": "42.64094444",
            "GPSLongitude": "18.11147222",
            "Title": "Dubrovnik",
            "Photo1000px": "http://sutrashop.com.hr/wp-content/uploads/2021/05/1000px-198.jpg",
            "Photo200px": "http://sutrashop.com.hr/wp-content/uploads/2021/05/200px-198.jpg"
        },
        {
            "DateCreated": "1914:03:01",
            "GPSLatitude": "43.44045556",
            "GPSLongitude": "16.83385",
            "Title": "Kostanje",
            "Photo1000px": "http://sutrashop.com.hr/wp-content/uploads/2021/05/1000px-199.jpg",
            "Photo200px": "http://sutrashop.com.hr/wp-content/uploads/2021/05/200px-199.jpg"
        },
        {
            "DateCreated": "1908:03:20",
            "GPSLatitude": "43.50791944",
            "GPSLongitude": "16.43735556",
            "Title": "Split",
            "Photo1000px": "http://sutrashop.com.hr/wp-content/uploads/2021/05/1000px-200.jpg",
            "Photo200px": "http://sutrashop.com.hr/wp-content/uploads/2021/05/200px-200.jpg"
        },
        {
            "DateCreated": "1908:03:20",
            "GPSLatitude": "43.50759444",
            "GPSLongitude": "16.43851389",
            "Title": "Split",
            "Photo1000px": "http://sutrashop.com.hr/wp-content/uploads/2021/05/1000px-201.jpg",
            "Photo200px": "http://sutrashop.com.hr/wp-content/uploads/2021/05/200px-201.jpg"
        },
        {
            "DateCreated": "1914:12:22",
            "GPSLatitude": "44.27025833",
            "GPSLongitude": "14.76664444",
            "Title": "Ist",
            "Photo1000px": "http://sutrashop.com.hr/wp-content/uploads/2021/05/1000px-202.jpg",
            "Photo200px": "http://sutrashop.com.hr/wp-content/uploads/2021/05/200px-202.jpg"
        },
        {
            "DateCreated": "1928:07:12",
            "GPSLatitude": "44.03497222",
            "GPSLongitude": "15.24675556",
            "Title": "Kukljica",
            "Photo1000px": "http://sutrashop.com.hr/wp-content/uploads/2021/05/1000px-203.jpg",
            "Photo200px": "http://sutrashop.com.hr/wp-content/uploads/2021/05/200px-203.jpg"
        },
        {
            "DateCreated": "1914:07:12",
            "GPSLatitude": "43.79929167",
            "GPSLongitude": "15.64153056",
            "Title": "Tisno",
            "Photo1000px": "http://sutrashop.com.hr/wp-content/uploads/2021/05/1000px-204.jpg",
            "Photo200px": "http://sutrashop.com.hr/wp-content/uploads/2021/05/200px-204.jpg"
        },
        {
            "DateCreated": "1935:12:07",
            "GPSLatitude": "43.79869444",
            "GPSLongitude": "15.64106667",
            "Title": "Tisno",
            "Photo1000px": "http://sutrashop.com.hr/wp-content/uploads/2021/05/1000px-205.jpg",
            "Photo200px": "http://sutrashop.com.hr/wp-content/uploads/2021/05/200px-205.jpg"
        },
        {
            "DateCreated": "1906:11:23",
            "GPSLatitude": "43.81858056",
            "GPSLongitude": "15.59131944",
            "Title": "Murter",
            "Photo1000px": "http://sutrashop.com.hr/wp-content/uploads/2021/05/1000px-206.jpg",
            "Photo200px": "http://sutrashop.com.hr/wp-content/uploads/2021/05/200px-206.jpg"
        },
        {
            "DateCreated": "1910:07:12",
            "GPSLatitude": "43.29513333",
            "GPSLongitude": "16.84912222",
            "Title": "Selca",
            "Photo1000px": "http://sutrashop.com.hr/wp-content/uploads/2021/05/1000px-207.jpg",
            "Photo200px": "http://sutrashop.com.hr/wp-content/uploads/2021/05/200px-207.jpg"
        },
        {
            "DateCreated": "1933:07:01",
            "GPSLatitude": "43.51066667",
            "GPSLongitude": "16.44349722",
            "Title": "Split",
            "Photo1000px": "http://sutrashop.com.hr/wp-content/uploads/2021/05/1000px-208.jpg",
            "Photo200px": "http://sutrashop.com.hr/wp-content/uploads/2021/05/200px-208.jpg"
        },
        {
            "DateCreated": "1935:05:24",
            "GPSLatitude": "43.44789444",
            "GPSLongitude": "17.21393333",
            "Title": "Imotski",
            "Photo1000px": "http://sutrashop.com.hr/wp-content/uploads/2021/05/1000px-209.jpg",
            "Photo200px": "http://sutrashop.com.hr/wp-content/uploads/2021/05/200px-209.jpg"
        },
        {
            "DateCreated": "1909:01:01",
            "GPSLatitude": "43.72049444",
            "GPSLongitude": "15.89958889",
            "Title": "Mandalina ",
            "Photo1000px": "http://sutrashop.com.hr/wp-content/uploads/2021/05/1000px-210.jpg",
            "Photo200px": "http://sutrashop.com.hr/wp-content/uploads/2021/05/200px-210.jpg"
        },
        {
            "DateCreated": "1903:09:03",
            "GPSLatitude": "43.72706111",
            "GPSLongitude": "15.900125",
            "Title": "Å ibenik",
            "Photo1000px": "http://sutrashop.com.hr/wp-content/uploads/2021/05/1000px-211.jpg",
            "Photo200px": "http://sutrashop.com.hr/wp-content/uploads/2021/05/200px-211.jpg"
        },
        {
            "DateCreated": "1909:03:01",
            "GPSLatitude": "43.74251944",
            "GPSLongitude": "15.88385",
            "Title": "Å ibenik",
            "Photo1000px": "http://sutrashop.com.hr/wp-content/uploads/2021/05/1000px-212.jpg",
            "Photo200px": "http://sutrashop.com.hr/wp-content/uploads/2021/05/200px-212.jpg"
        },
        {
            "DateCreated": "1909:07:12",
            "GPSLatitude": "43.73300278",
            "GPSLongitude": "15.89106667",
            "Title": "Å ibenik",
            "Photo1000px": "http://sutrashop.com.hr/wp-content/uploads/2021/05/1000px-213.jpg",
            "Photo200px": "http://sutrashop.com.hr/wp-content/uploads/2021/05/200px-213.jpg"
        },
        {
            "DateCreated": "1919:03:20",
            "GPSLatitude": "43.73510278",
            "GPSLongitude": "15.89294444",
            "Title": "Å ibenik",
            "Photo1000px": "http://sutrashop.com.hr/wp-content/uploads/2021/05/1000px-214.jpg",
            "Photo200px": "http://sutrashop.com.hr/wp-content/uploads/2021/05/200px-214.jpg"
        },
        {
            "DateCreated": "1903:02:11",
            "GPSLatitude": "43.52282222",
            "GPSLongitude": "16.48578889",
            "Title": "Solin",
            "Photo1000px": "http://sutrashop.com.hr/wp-content/uploads/2021/05/1000px-215.jpg",
            "Photo200px": "http://sutrashop.com.hr/wp-content/uploads/2021/05/200px-215.jpg"
        },
        {
            "DateCreated": "1901:02:11",
            "GPSLatitude": "43.51538333",
            "GPSLongitude": "16.24843056",
            "Title": "Trogir",
            "Photo1000px": "http://sutrashop.com.hr/wp-content/uploads/2021/05/1000px-216.jpg",
            "Photo200px": "http://sutrashop.com.hr/wp-content/uploads/2021/05/200px-216.jpg"
        },
        {
            "DateCreated": "1906:03:01",
            "GPSLatitude": "43.73539167",
            "GPSLongitude": "15.88834444",
            "Title": "Å ibenik",
            "Photo1000px": "http://sutrashop.com.hr/wp-content/uploads/2021/05/1000px-217.jpg",
            "Photo200px": "http://sutrashop.com.hr/wp-content/uploads/2021/05/200px-217.jpg"
        },
        {
            "DateCreated": "1908:12:09",
            "GPSLatitude": "42.96007222",
            "GPSLongitude": "17.13636111",
            "Title": "KorÄula",
            "Photo1000px": "http://sutrashop.com.hr/wp-content/uploads/2021/05/1000px-218.jpg",
            "Photo200px": "http://sutrashop.com.hr/wp-content/uploads/2021/05/200px-218.jpg"
        },
        {
            "DateCreated": "1906:09:03",
            "GPSLatitude": "43.86043056",
            "GPSLongitude": "15.97288056",
            "Title": "Visovac",
            "Photo1000px": "http://sutrashop.com.hr/wp-content/uploads/2021/05/1000px-219.jpg",
            "Photo200px": "http://sutrashop.com.hr/wp-content/uploads/2021/05/200px-219.jpg"
        },
        {
            "DateCreated": "1909:09:03",
            "GPSLatitude": "43.35408333",
            "GPSLongitude": "16.34183056",
            "Title": "Gornje selo",
            "Photo1000px": "http://sutrashop.com.hr/wp-content/uploads/2021/05/1000px-220.jpg",
            "Photo200px": "http://sutrashop.com.hr/wp-content/uploads/2021/05/200px-220.jpg"
        },
        {
            "DateCreated": "1909:10:21",
            "GPSLatitude": "43.18375556",
            "GPSLongitude": "16.59473056",
            "Title": "Stari Grad",
            "Photo1000px": "http://sutrashop.com.hr/wp-content/uploads/2021/05/1000px-221.jpg",
            "Photo200px": "http://sutrashop.com.hr/wp-content/uploads/2021/05/200px-221.jpg"
        },
        {
            "DateCreated": "1905:06:06",
            "GPSLatitude": "43.73347222",
            "GPSLongitude": "15.78706944",
            "Title": "Å epurine",
            "Photo1000px": "http://sutrashop.com.hr/wp-content/uploads/2021/05/1000px-222.jpg",
            "Photo200px": "http://sutrashop.com.hr/wp-content/uploads/2021/05/200px-222.jpg"
        },
        {
            "DateCreated": "1932:07:12",
            "GPSLatitude": "43.51324722",
            "GPSLongitude": "16.111025",
            "Title": "Marina",
            "Photo1000px": "http://sutrashop.com.hr/wp-content/uploads/2021/05/1000px-223.jpg",
            "Photo200px": "http://sutrashop.com.hr/wp-content/uploads/2021/05/200px-223.jpg"
        },
        {
            "DateCreated": "1908:02:09",
            "GPSLatitude": "43.54604167",
            "GPSLongitude": "16.42519722",
            "Title": "KaÅ¡tel SuÄ‡urac",
            "Photo1000px": "http://sutrashop.com.hr/wp-content/uploads/2021/05/1000px-224.jpg",
            "Photo200px": "http://sutrashop.com.hr/wp-content/uploads/2021/05/200px-224.jpg"
        },
        {
            "DateCreated": "1914:01:18",
            "GPSLatitude": "43.46220833",
            "GPSLongitude": "16.61605278",
            "Title": "Jesenice",
            "Photo1000px": "http://sutrashop.com.hr/wp-content/uploads/2021/05/1000px-225.jpg",
            "Photo200px": "http://sutrashop.com.hr/wp-content/uploads/2021/05/200px-225.jpg"
        },
        {
            "DateCreated": "1914:12:09",
            "GPSLatitude": "43.46231389",
            "GPSLongitude": "16.61425278",
            "Title": "Krilo Jesenice",
            "Photo1000px": "http://sutrashop.com.hr/wp-content/uploads/2021/05/1000px-226.jpg",
            "Photo200px": "http://sutrashop.com.hr/wp-content/uploads/2021/05/200px-226.jpg"
        },
        {
            "DateCreated": "1912:05:28",
            "GPSLatitude": "42.96778611",
            "GPSLongitude": "17.34474722",
            "Title": "Kuna",
            "Photo1000px": "http://sutrashop.com.hr/wp-content/uploads/2021/05/1000px-227.jpg",
            "Photo200px": "http://sutrashop.com.hr/wp-content/uploads/2021/05/200px-227.jpg"
        },
        {
            "DateCreated": "1914:07:12",
            "GPSLatitude": "42.78244722",
            "GPSLongitude": "17.88858056",
            "Title": "Slano",
            "Photo1000px": "http://sutrashop.com.hr/wp-content/uploads/2021/05/1000px-228.jpg",
            "Photo200px": "http://sutrashop.com.hr/wp-content/uploads/2021/05/200px-228.jpg"
        },
        {
            "DateCreated": "1901:06:06",
            "GPSLatitude": "43.16837778",
            "GPSLongitude": "16.44306944",
            "Title": "Hvar",
            "Photo1000px": "http://sutrashop.com.hr/wp-content/uploads/2021/05/1000px-229.jpg",
            "Photo200px": "http://sutrashop.com.hr/wp-content/uploads/2021/05/200px-229.jpg"
        },
        {
            "DateCreated": "1912:06:06",
            "GPSLatitude": "43.17262778",
            "GPSLongitude": "16.44200556",
            "Title": "Hvar",
            "Photo1000px": "http://sutrashop.com.hr/wp-content/uploads/2021/05/1000px-230.jpg",
            "Photo200px": "http://sutrashop.com.hr/wp-content/uploads/2021/05/200px-230.jpg"
        },
        {
            "DateCreated": "1911:01:21",
            "GPSLatitude": "43.34805833",
            "GPSLongitude": "16.73223889",
            "Title": "PuÄiÅ¡Ä‡e",
            "Photo1000px": "http://sutrashop.com.hr/wp-content/uploads/2021/05/1000px-231.jpg",
            "Photo200px": "http://sutrashop.com.hr/wp-content/uploads/2021/05/200px-231.jpg"
        },
        {
            "DateCreated": "1914:02:11",
            "GPSLatitude": "43.55039444",
            "GPSLongitude": "16.36338333",
            "Title": "KaÅ¡tel LukÅ¡iÄ‡",
            "Photo1000px": "http://sutrashop.com.hr/wp-content/uploads/2021/05/1000px-232.jpg",
            "Photo200px": "http://sutrashop.com.hr/wp-content/uploads/2021/05/200px-232.jpg"
        },
        {
            "DateCreated": "1933:01:01",
            "GPSLatitude": "43.97305",
            "GPSLongitude": "16.42720556",
            "Title": "Crkva Svetog Spasa kod Vrlike",
            "Photo1000px": "http://sutrashop.com.hr/wp-content/uploads/2021/05/1000px-233.jpg",
            "Photo200px": "http://sutrashop.com.hr/wp-content/uploads/2021/05/200px-233.jpg"
        },
        {
            "DateCreated": "1910:04:13",
            "GPSLatitude": "44.11987778",
            "GPSLongitude": "15.225175",
            "Title": "Zadar",
            "Photo1000px": "http://sutrashop.com.hr/wp-content/uploads/2021/05/1000px-234.jpg",
            "Photo200px": "http://sutrashop.com.hr/wp-content/uploads/2021/05/200px-234.jpg"
        },
        {
            "DateCreated": "1932:01:24",
            "GPSLatitude": "43.44789444",
            "GPSLongitude": "17.21393333",
            "Title": "Imotski",
            "Photo1000px": "http://sutrashop.com.hr/wp-content/uploads/2021/05/1000px-235.jpg",
            "Photo200px": "http://sutrashop.com.hr/wp-content/uploads/2021/05/200px-235.jpg"
        },
        {
            "DateCreated": "1930:11:21",
            "GPSLatitude": "43.38401944",
            "GPSLongitude": "16.553675",
            "Title": "Supetar",
            "Photo1000px": "http://sutrashop.com.hr/wp-content/uploads/2021/05/1000px-236.jpg",
            "Photo200px": "http://sutrashop.com.hr/wp-content/uploads/2021/05/200px-236.jpg"
        },
        {
            "DateCreated": "1910:10:21",
            "GPSLatitude": "43.17279722",
            "GPSLongitude": "16.44146944",
            "Title": "Hvar",
            "Photo1000px": "http://sutrashop.com.hr/wp-content/uploads/2021/05/1000px-237.jpg",
            "Photo200px": "http://sutrashop.com.hr/wp-content/uploads/2021/05/200px-237.jpg"
        },
        {
            "DateCreated": "1909:10:17",
            "GPSLatitude": "42.97340833",
            "GPSLongitude": "17.01930278",
            "Title": "RaÄiÅ¡Ä‡e",
            "Photo1000px": "http://sutrashop.com.hr/wp-content/uploads/2021/05/1000px-238.jpg",
            "Photo200px": "http://sutrashop.com.hr/wp-content/uploads/2021/05/200px-238.jpg"
        },
        {
            "DateCreated": "1933:05:14",
            "GPSLatitude": "44.20165833",
            "GPSLongitude": "15.68196667",
            "Title": "Obrovac",
            "Photo1000px": "http://sutrashop.com.hr/wp-content/uploads/2021/05/1000px-239.jpg",
            "Photo200px": "http://sutrashop.com.hr/wp-content/uploads/2021/05/200px-239.jpg"
        },
        {
            "DateCreated": "1908:05:14",
            "GPSLatitude": "42.97413056",
            "GPSLongitude": "17.17938611",
            "Title": "OrebiÄ‡",
            "Photo1000px": "http://sutrashop.com.hr/wp-content/uploads/2021/05/1000px-240.jpg",
            "Photo200px": "http://sutrashop.com.hr/wp-content/uploads/2021/05/200px-240.jpg"
        },
        {
            "DateCreated": "1931:11:21",
            "GPSLatitude": "43.00901389",
            "GPSLongitude": "17.26901389",
            "Title": "Trpanj",
            "Photo1000px": "http://sutrashop.com.hr/wp-content/uploads/2021/05/1000px-241.jpg",
            "Photo200px": "http://sutrashop.com.hr/wp-content/uploads/2021/05/200px-241.jpg"
        },
        {
            "DateCreated": "1905:08:29",
            "GPSLatitude": "43.70204722",
            "GPSLongitude": "16.64251667",
            "Title": "Sinj",
            "Photo1000px": "http://sutrashop.com.hr/wp-content/uploads/2021/05/1000px-242.jpg",
            "Photo200px": "http://sutrashop.com.hr/wp-content/uploads/2021/05/200px-242.jpg"
        },
        {
            "DateCreated": "1936:10:22",
            "GPSLatitude": "43.55061667",
            "GPSLongitude": "16.34533611",
            "Title": "KaÅ¡tel Stari",
            "Photo1000px": "http://sutrashop.com.hr/wp-content/uploads/2021/05/1000px-243.jpg",
            "Photo200px": "http://sutrashop.com.hr/wp-content/uploads/2021/05/200px-243.jpg"
        },
        {
            "DateCreated": "1933:10:22",
            "GPSLatitude": "43.54910278",
            "GPSLongitude": "16.34077222",
            "Title": "KaÅ¡tel Novi",
            "Photo1000px": "http://sutrashop.com.hr/wp-content/uploads/2021/05/1000px-244.jpg",
            "Photo200px": "http://sutrashop.com.hr/wp-content/uploads/2021/05/200px-244.jpg"
        },
        {
            "DateCreated": "1934:10:22",
            "GPSLatitude": "43.55045278",
            "GPSLongitude": "16.36298889",
            "Title": "KaÅ¡tel LukÅ¡iÄ‡",
            "Photo1000px": "http://sutrashop.com.hr/wp-content/uploads/2021/05/1000px-245.jpg",
            "Photo200px": "http://sutrashop.com.hr/wp-content/uploads/2021/05/200px-245.jpg"
        },
        {
            "DateCreated": "1927:05:07",
            "GPSLatitude": "44.08078056",
            "GPSLongitude": "15.18836389",
            "Title": "Preko",
            "Photo1000px": "http://sutrashop.com.hr/wp-content/uploads/2021/05/1000px-246.jpg",
            "Photo200px": "http://sutrashop.com.hr/wp-content/uploads/2021/05/200px-246.jpg"
        },
        {
            "DateCreated": "1929:05:07",
            "GPSLatitude": "44.08079722",
            "GPSLongitude": "15.18838611",
            "Title": "Preko",
            "Photo1000px": "http://sutrashop.com.hr/wp-content/uploads/2021/05/1000px-247.jpg",
            "Photo200px": "http://sutrashop.com.hr/wp-content/uploads/2021/05/200px-247.jpg"
        },
        {
            "DateCreated": "1930:08:29",
            "GPSLatitude": "42.76883056",
            "GPSLongitude": "16.89588889",
            "Title": "Lastovo",
            "Photo1000px": "http://sutrashop.com.hr/wp-content/uploads/2021/05/1000px-248.jpg",
            "Photo200px": "http://sutrashop.com.hr/wp-content/uploads/2021/05/200px-248.jpg"
        },
        {
            "DateCreated": "1903:05:07",
            "GPSLatitude": "43.70130278",
            "GPSLongitude": "16.63747222",
            "Title": "Sinj",
            "Photo1000px": "http://sutrashop.com.hr/wp-content/uploads/2021/05/1000px-249.jpg",
            "Photo200px": "http://sutrashop.com.hr/wp-content/uploads/2021/05/200px-249.jpg"
        },
        {
            "DateCreated": "1928:07:12",
            "GPSLatitude": "43.5274",
            "GPSLongitude": "15.96818333",
            "Title": "Rogoznica",
            "Photo1000px": "http://sutrashop.com.hr/wp-content/uploads/2021/05/1000px-250.jpg",
            "Photo200px": "http://sutrashop.com.hr/wp-content/uploads/2021/05/200px-250.jpg"
        },
        {
            "DateCreated": "1913:09:03",
            "GPSLatitude": "43.44229167",
            "GPSLongitude": "16.641775",
            "Title": "Dugi rat",
            "Photo1000px": "http://sutrashop.com.hr/wp-content/uploads/2021/05/1000px-251.jpg",
            "Photo200px": "http://sutrashop.com.hr/wp-content/uploads/2021/05/200px-251.jpg"
        },
        {
            "DateCreated": "1933:03:23",
            "GPSLatitude": "43.18156667",
            "GPSLongitude": "16.67138056",
            "Title": "Vrboska",
            "Photo1000px": "http://sutrashop.com.hr/wp-content/uploads/2021/05/1000px-252.jpg",
            "Photo200px": "http://sutrashop.com.hr/wp-content/uploads/2021/05/200px-252.jpg"
        },
        {
            "DateCreated": "1903:12:09",
            "GPSLatitude": "43.52784167",
            "GPSLongitude": "16.45521944",
            "Title": "Split",
            "Photo1000px": "http://sutrashop.com.hr/wp-content/uploads/2021/05/1000px-253.jpg",
            "Photo200px": "http://sutrashop.com.hr/wp-content/uploads/2021/05/200px-253.jpg"
        },
        {
            "DateCreated": "1933:03:23",
            "GPSLatitude": "43.18186111",
            "GPSLongitude": "16.67238889",
            "Title": "Vrboska",
            "Photo1000px": "http://sutrashop.com.hr/wp-content/uploads/2021/05/1000px-254.jpg",
            "Photo200px": "http://sutrashop.com.hr/wp-content/uploads/2021/05/200px-254.jpg"
        },
        {
            "DateCreated": "1933:03:23",
            "GPSLatitude": "42.67933333",
            "GPSLongitude": "18.00596111",
            "Title": "KoloÄep",
            "Photo1000px": "http://sutrashop.com.hr/wp-content/uploads/2021/05/1000px-255.jpg",
            "Photo200px": "http://sutrashop.com.hr/wp-content/uploads/2021/05/200px-255.jpg"
        },
        {
            "DateCreated": "1898:03:23",
            "GPSLatitude": "42.86540556",
            "GPSLongitude": "17.49508889",
            "Title": "Split",
            "Photo1000px": "http://sutrashop.com.hr/wp-content/uploads/2021/05/1000px-256.jpg",
            "Photo200px": "http://sutrashop.com.hr/wp-content/uploads/2021/05/200px-256.jpg"
        },
        {
            "DateCreated": "1934:03:23",
            "GPSLatitude": "42.93674722",
            "GPSLongitude": "16.7923",
            "Title": "Blato",
            "Photo1000px": "http://sutrashop.com.hr/wp-content/uploads/2021/05/1000px-257.jpg",
            "Photo200px": "http://sutrashop.com.hr/wp-content/uploads/2021/05/200px-257.jpg"
        },
        {
            "DateCreated": "1936:03:23",
            "GPSLatitude": "42.96291389",
            "GPSLongitude": "16.71706944",
            "Title": "Vela Luka",
            "Photo1000px": "http://sutrashop.com.hr/wp-content/uploads/2021/05/1000px-258.jpg",
            "Photo200px": "http://sutrashop.com.hr/wp-content/uploads/2021/05/200px-258.jpg"
        },
        {
            "DateCreated": "1933:03:23",
            "GPSLatitude": "42.96140278",
            "GPSLongitude": "16.71724722",
            "Title": "Vela Luka",
            "Photo1000px": "http://sutrashop.com.hr/wp-content/uploads/2021/05/1000px-259.jpg",
            "Photo200px": "http://sutrashop.com.hr/wp-content/uploads/2021/05/200px-259.jpg"
        },
        {
            "DateCreated": "1930:03:23",
            "GPSLatitude": "42.96140278",
            "GPSLongitude": "16.71724722",
            "Title": "Vela Luka",
            "Photo1000px": "http://sutrashop.com.hr/wp-content/uploads/2021/05/1000px-260.jpg",
            "Photo200px": "http://sutrashop.com.hr/wp-content/uploads/2021/05/200px-260.jpg"
        },
        {
            "DateCreated": "1932:03:23",
            "GPSLatitude": "43.39227222",
            "GPSLongitude": "16.28743333",
            "Title": "Grohote",
            "Photo1000px": "http://sutrashop.com.hr/wp-content/uploads/2021/05/1000px-261.jpg",
            "Photo200px": "http://sutrashop.com.hr/wp-content/uploads/2021/05/200px-261.jpg"
        },
        {
            "DateCreated": "1932:03:23",
            "GPSLatitude": "43.391975",
            "GPSLongitude": "16.28701667",
            "Title": "Grohote",
            "Photo1000px": "http://sutrashop.com.hr/wp-content/uploads/2021/05/1000px-262.jpg",
            "Photo200px": "http://sutrashop.com.hr/wp-content/uploads/2021/05/200px-262.jpg"
        },
        {
            "DateCreated": "1911:03:23",
            "GPSLatitude": "42.96056667",
            "GPSLongitude": "16.71366111",
            "Title": "Vela Luka",
            "Photo1000px": "http://sutrashop.com.hr/wp-content/uploads/2021/05/1000px-263.jpg",
            "Photo200px": "http://sutrashop.com.hr/wp-content/uploads/2021/05/200px-263.jpg"
        },
        {
            "DateCreated": "1932:03:23",
            "GPSLatitude": "43.39146111",
            "GPSLongitude": "16.28725",
            "Title": "Grohote",
            "Photo1000px": "http://sutrashop.com.hr/wp-content/uploads/2021/05/1000px-264.jpg",
            "Photo200px": "http://sutrashop.com.hr/wp-content/uploads/2021/05/200px-264.jpg"
        },
        {
            "DateCreated": "1930:03:23",
            "GPSLatitude": "42.96566389",
            "GPSLongitude": "16.80801111",
            "Title": "Prigradica",
            "Photo1000px": "http://sutrashop.com.hr/wp-content/uploads/2021/05/1000px-265.jpg",
            "Photo200px": "http://sutrashop.com.hr/wp-content/uploads/2021/05/200px-265.jpg"
        },
        {
            "DateCreated": "1932:03:23",
            "GPSLatitude": "44.20129722",
            "GPSLongitude": "15.68439722",
            "Title": "Obrovac",
            "Photo1000px": "http://sutrashop.com.hr/wp-content/uploads/2021/05/1000px-266.jpg",
            "Photo200px": "http://sutrashop.com.hr/wp-content/uploads/2021/05/200px-266.jpg"
        },
        {
            "DateCreated": "1900:12:09",
            "GPSLatitude": "43.50875278",
            "GPSLongitude": "16.43604167",
            "Title": "Split",
            "Photo1000px": "http://sutrashop.com.hr/wp-content/uploads/2021/05/1000px-267.jpg",
            "Photo200px": "http://sutrashop.com.hr/wp-content/uploads/2021/05/200px-267.jpg"
        },
        {
            "DateCreated": "1900:03:23",
            "GPSLatitude": "43.02404167",
            "GPSLongitude": "17.44910833",
            "Title": "Neretva",
            "Photo1000px": "http://sutrashop.com.hr/wp-content/uploads/2021/05/1000px-268.jpg",
            "Photo200px": "http://sutrashop.com.hr/wp-content/uploads/2021/05/200px-268.jpg"
        },
        {
            "DateCreated": "1904:03:23",
            "GPSLatitude": "44.20157222",
            "GPSLongitude": "15.684775",
            "Title": "Obrovac",
            "Photo1000px": "http://sutrashop.com.hr/wp-content/uploads/2021/05/1000px-269.jpg",
            "Photo200px": "http://sutrashop.com.hr/wp-content/uploads/2021/05/200px-269.jpg"
        },
        {
            "DateCreated": "1906:03:23",
            "GPSLatitude": "43.26090833",
            "GPSLongitude": "16.65478889",
            "Title": "Bol",
            "Photo1000px": "http://sutrashop.com.hr/wp-content/uploads/2021/05/1000px-270.jpg",
            "Photo200px": "http://sutrashop.com.hr/wp-content/uploads/2021/05/200px-270.jpg"
        },
        {
            "DateCreated": "1900:03:23",
            "GPSLatitude": "42.96776944",
            "GPSLongitude": "17.34480833",
            "Title": "Kuna",
            "Photo1000px": "http://sutrashop.com.hr/wp-content/uploads/2021/05/1000px-271.jpg",
            "Photo200px": "http://sutrashop.com.hr/wp-content/uploads/2021/05/200px-271.jpg"
        },